city_name,lat,lon
Zwönitz,50.63027,12.80999
Zwingenberg,49.72389,8.61084
Zwiesel,49.01693,13.23765
Zwickau,50.72724,12.48839
Zwenkau,51.21872,12.33008
Zweibrücken,49.24686,7.36977
Zusmarshausen,48.40014,10.59917
Zülpich,50.69447,6.65414
Zschorlau,50.56667,12.65
Zschopau,50.74818,13.07691
Zossen,52.216,13.44909
Zorneding,48.08433,11.82446
Zons,51.12364,6.84468
Zittau,50.89772,14.80764
Zirndorf,49.4424,10.95414
Zimmern ob Rottweil,48.1666,8.59436
Zierenberg,51.36948,9.30164
Zeven,53.29657,9.27685
Zeuthen,52.34803,13.62174
Zeulenroda,50.65278,11.98377
Zetel,53.41667,7.98333
Zerbst,51.9662,12.08517
Zellingen,49.89737,9.81746
Zell im Wiesental,47.70555,7.85248
Zella-Mehlis,50.65642,10.66046
Zell,48.69235,8.06301
Zeitz,51.04962,12.1369
Zeitlarn,49.07848,12.11174
Zeithain,51.33356,13.33809
Zeil,50.00986,10.5947
Zehlendorf,52.43333,13.25
Zehdenick,52.97852,13.33165
Zapfendorf,50.01783,10.93243
Xanten,51.65877,6.45297
Wutöschingen,47.66019,8.36755
Wustermark,52.55,12.95
Wusterhausen,52.8912,12.46021
Wüstenrot,49.08083,9.46056
Wurzen,51.3707,12.73939
Würzburg,49.79391,9.95121
Würselen,50.81809,6.1347
Wuppertal,51.25627,7.14816
Wunstorf,52.42377,9.43585
Wunsiedel,50.03923,12.00342
Bad Wünnenberg,51.52002,8.69934
Wülfrath,51.28195,7.03821
Wriezen,52.72091,14.13425
Wörth am Rhein,49.04888,8.25959
Wörrstadt,49.84861,8.12417
Worringen,51.065,6.85936
Worpswede,53.21667,8.93333
Worms,49.63278,8.35916
Worbis,51.41997,10.3633
Woltersdorf,52.45554,13.74986
Wolnzach,48.6038,11.62568
Wolmirstedt,52.24856,11.62945
Wollmatingen,47.69226,9.14595
Wolgast,54.052,13.77105
Wolfschlugen,48.65,9.28333
Wolfsburg,52.42452,10.7815
Wolfratshausen,47.91289,11.42166
Wolfhagen,51.32611,9.17015
Wölfersheim,50.4,8.81667
Wolfenbüttel,52.16442,10.54095
Wolfen,51.66122,12.26873
Wolfach,48.29319,8.2158
Wixhausen,49.93085,8.64972
Witzenhausen,51.34103,9.8554
Wittstock,53.16118,12.48287
Wittorf,54.05653,9.96701
Wittmund,53.57674,7.77839
Wittlich,49.98596,6.89308
Wittingen,52.72694,10.73613
Wittichenau,51.38496,14.24403
Wittenburg,53.50599,11.08049
Wittenberge,53.00543,11.75032
Wittenau,52.59319,13.32127
Witten,51.44362,7.35258
Wissen,50.77915,7.73466
Wismar,53.89314,11.45286
Wirges,50.47195,7.79844
Wipperfürth,51.1161,7.39865
Winterlingen,48.18333,9.11667
Winterhude,53.59628,10.01785
Winterberg,51.19248,8.53468
Winterbach,48.79918,9.47914
Winsen,53.35753,10.21282
Winsen,52.68301,9.91362
Winnenden,48.87563,9.39819
Windsbach,49.24786,10.82651
Windischeschenbach,49.80108,12.1571
Wilthen,51.09745,14.3929
Wilsdruff,51.05199,13.53657
Wilnsdorf,50.81667,8.1
Wilmersdorf,52.48333,13.31667
Willstätt,48.54071,7.89314
Willingshausen,50.85,9.2
Willingen,51.29418,8.6091
Willich,51.26371,6.54734
Willebadessen,51.62564,9.03694
Wilkau-Haßlau,50.67504,12.51482
Wilhermsdorf,49.48308,10.71555
Wilhelmstadt,52.52379,13.18916
Wilhelmsruh,52.5871,13.36855
Wilhelmshaven,53.52998,8.11253
Wilhelmsburg,53.49973,10.01281
Wildeshausen,52.89446,8.43375
Wildberg,48.62336,8.74518
Bad Wildbad,48.75071,8.5504
Wietze,52.65,9.83333
Wietmarschen,52.51806,7.13408
Wiesmoor,53.41667,7.73333
Wiesloch,49.29504,8.69846
Wiesenburg,52.11456,12.45534
Wieseck,50.60528,8.70238
Wiesbaden,50.08258,8.24932
Wiernsheim,48.88333,8.85
Wiehl,50.9495,7.55062
Wiefelstede,53.25,8.11667
Wickede,51.4964,7.86587
Wetzlar,50.56109,8.50495
Wetzendorf,49.47056,11.04148
Wettringen,52.20939,7.31895
Wetter,51.38747,7.39277
Wetter,50.90254,8.72366
Westhausen,48.88333,10.18333
Westerstede,53.25682,7.92737
Westerrönfeld,54.27954,9.65031
Westerland,54.9079,8.30326
Westerkappeln,52.31667,7.88333
Westerburg,50.55938,7.97482
Westend,52.51708,13.27636
Weßling,48.07452,11.2482
Wesseling,50.82709,6.9747
Wesel,51.6669,6.62037
Wertingen,48.56314,10.68149
Petersberg,50.56002,9.71295
Werther,52.07771,8.41793
Wertheim,49.759,9.50852
Wersten,51.18459,6.81249
Wernigerode,51.83652,10.78216
Werneuchen,52.63275,13.73437
Werneck,49.98201,10.09884
Werne,51.66446,7.63421
Wernberg-Köblitz,49.53931,12.1613
Wernau,48.69306,9.41533
Wermsdorf,51.28333,12.95
Wermelskirchen,51.1397,7.21583
Werlte,52.85,7.68333
Werl,51.55493,7.91403
Werdohl,51.26011,7.76608
Werder,52.37874,12.934
Werdau,50.73604,12.37534
Wenzenbach,49.07561,12.19954
Wentorf bei Hamburg,53.5,10.25
Wennigsen,52.27404,9.57287
Wendlingen am Neckar,48.67124,9.37632
Wenden,50.96667,7.86667
Wendelstein,49.3523,11.15069
Wendeburg,52.32957,10.39255
Wemding,48.87461,10.72452
Welzheim,48.87675,9.63434
Welver,51.61667,7.96667
Wellingsbüttel,53.64104,10.0798
Weitramsdorf,50.256,10.87989
Weitnau,47.64171,10.12732
Weiterstadt,49.9039,8.58874
Weißwasser,51.50403,14.64017
Weißenthurm,50.41719,7.45072
Weißenhorn,48.30501,10.16047
Weißenfels,51.20148,11.96843
Weißenburg in Bayern,49.03095,10.97221
Weissach,48.84687,8.92828
Weiskirchen,49.55,6.81667
Weisendorf,49.62283,10.82531
Weinstadt-Endersbach,48.81311,9.36387
Weinsberg,49.15127,9.28762
Weinheim,49.54887,8.66697
Weingarten,49.05457,8.52678
Weingarten,47.81009,9.63863
Weinböhla,51.16667,13.56667
Weimar,50.9803,11.32903
Weilmünster,50.43143,8.37673
Weil im Schönbuch,48.6227,9.06355
Weilheim an der Teck,48.61572,9.53751
Weilheim,47.84147,11.15484
Weilerswist,50.75292,6.84585
Weil der Stadt,48.74953,8.87176
Weilburg,50.48438,8.26249
Weil am Rhein,47.59331,7.62082
Weikersheim,49.47866,9.89977
Weiden,49.67682,12.15613
Weida,50.77449,12.06028
Weißensee,52.55632,13.46649
Wehrheim,50.3,8.56667
Wehrda,50.83814,8.7556
Wehr,47.62983,7.90423
Wegscheid,48.60136,13.78733
Wegberg,51.14221,6.28436
Weeze,51.62678,6.19792
Weener,53.16332,7.35052
Wedel,53.58374,9.69835
Wedding,52.54734,13.35594
Wathlingen,52.5369,10.15069
Wassertrüdingen,49.04328,10.59906
Wasserburg am Inn,48.0525,12.22341
Wassenberg,51.10009,6.15484
Warstein,51.44488,8.34851
Warnemünde,54.1767,12.08402
Warendorf,51.95109,7.98756
Waren,53.5204,12.67985
Wardenburg,53.06667,8.2
Warburg,51.49011,9.14641
Wanzleben,52.06087,11.4408
Wannweil,48.51667,9.15
Wannsee,52.41915,13.15531
Wangen,47.6895,9.83247
Wandlitz,52.74196,13.45799
Waltrop,51.62125,7.40238
Waltershausen,50.89827,10.55791
Waltenhofen,47.67319,10.30703
Walsrode,52.86147,9.5926
Wallersdorf,48.73767,12.74744
Wallerfangen,49.32749,6.71102
Wallenhorst,52.35,8.01667
Walldürn,49.58358,9.36642
Walldorf,49.30637,8.64236
Waldstetten,48.76615,9.82135
Waldshut-Tiengen,47.62323,8.21717
Waldsee,49.39528,8.44028
Waldsassen,50.00167,12.30434
Waldmünchen,49.37804,12.70905
Waldmohr,49.38333,7.33333
Wald-Michelbach,49.57,8.83167
Waldkraiburg,48.20854,12.39893
Waldkirchen,48.7327,13.60082
Waldkirch,48.09585,7.96371
Waldkappel,51.14462,9.87695
Waldheim,51.07282,13.02004
Waldfischbach-Burgalben,49.28333,7.66667
Waldfeucht,51.0661,5.98815
Waldenbuch,48.6383,9.13256
Waldeck,51.20618,9.06286
Waldbüttelbrunn,49.78833,9.84667
Waldbröl,50.87576,7.61688
Waibstadt,49.29505,8.91771
Waiblingen,48.83241,9.31641
Wahn-Heide,50.85891,7.10662
Wahlstedt,53.95313,10.21269
Waging am See,47.93414,12.73392
Waghäusel,49.24991,8.51257
Wagenfeld,52.55,8.58333
Wadgassen,49.26667,6.78333
Wadersloh,51.73333,8.25
Wadern,49.54122,6.88774
Wächtersbach,50.25511,9.29564
Wachtendonk,51.40916,6.33894
Wachtberg,50.63333,7.1
Wabern,51.1,9.35
Waakirchen,47.7725,11.67315
Vreden,52.03792,6.828
Volksdorf,53.64972,10.18417
Volkmarsen,51.40895,9.11814
Völklingen,49.25162,6.85873
Volkach,49.86352,10.22813
Vöhringen,48.27839,10.08236
Vöhl,51.20565,8.9451
Vohenstrauß,49.62383,12.33808
Vohburg an der Donau,48.76977,11.61845
Voerde,51.59703,6.6863
Vlotho,52.1653,8.85996
Visselhövede,52.98546,9.58265
Visbek,52.83333,8.31667
Vilshofen,48.62695,13.19222
Vilseck,49.6148,11.80261
Vilsbiburg,48.45296,12.35604
Villmar,50.39287,8.1931
Villingen-Schwenningen,48.06226,8.49358
Viersen,51.25435,6.39441
Viernheim,49.54033,8.5782
Vienenburg,51.95242,10.56374
Viechtach,49.08001,12.88566
Vettweiß,50.73333,6.6
Vetschau,51.78638,14.07941
Versmold,52.04009,8.15272
Verl,51.88333,8.51667
Verden,52.92343,9.23491
Velten,52.69149,13.17533
Velen,51.89447,6.98807
Velden,48.36632,12.25596
Velburg,49.23212,11.6716
Velbert,51.33537,7.04348
Veitshöchheim,49.83278,9.88167
Veitsbronn,49.51239,10.88797
Vegesack,53.17923,8.62228
Vechta,52.72632,8.28598
Vechelde,52.26038,10.36491
Vaterstetten,48.10537,11.76825
Varel,53.39693,8.13621
Vallendar,50.39586,7.62427
Vaihingen an der Enz,48.93563,8.96045
Uetersen,53.68769,9.66394
Uslar,51.6569,9.63501
Usingen,50.33554,8.53688
Bad Urach,48.49107,9.40009
Unterschleißheim,48.28038,11.57684
Untermeitingen,48.16082,10.80694
Unterhausen,48.4298,9.25504
Unterhaching,48.06598,11.61564
Untergruppenbach,49.0894,9.27516
Untergriesbach,48.57434,13.66725
Unterföhring,48.19253,11.64293
Unterkrozingen,47.91933,7.69045
Unna,51.53795,7.68969
Umkirch,48.03333,7.76667
Ulm,48.39841,9.99155
Uhingen,48.70475,9.5857
Uffenheim,49.54415,10.23286
Uetze,52.46511,10.20467
Uerdingen,51.35478,6.63918
Uelzen,52.96572,10.56111
Uelsen,52.5,6.88333
Uedem,51.6652,6.27371
Ueckermünde,53.73795,14.04473
Überlingen,47.76977,9.17136
Überherrn,49.24187,6.6984
Übach-Palenberg,50.91775,6.12336
Twistringen,52.79926,8.64163
Twist,52.63793,7.06622
Tutzing,47.90938,11.2803
Tuttlingen,47.98464,8.8177
Türkheim,48.06401,10.64156
Tuntenhausen,47.93509,12.01518
Tungendorf,54.09878,9.9966
Tübingen,48.52266,9.05222
Trostberg an der Alz,48.02802,12.55804
Trossingen,48.07667,8.64409
Troisdorf,50.80901,7.14968
Trochtelfingen,48.30843,9.24491
Trittau,53.61667,10.4
Triftern,48.39468,13.00627
Trier,49.75565,6.63935
Triberg,48.13175,8.23317
Treuenbrietzen,52.09754,12.87258
Treuen,50.54247,12.30339
Treuchtlingen,48.95473,10.90833
Alt-Treptow,52.48863,13.4586
Trendelburg,51.57408,9.42095
Treffurt,51.13691,10.23361
Trebur,49.92639,8.40732
Trebbin,52.21675,13.22496
Travemünde,53.96304,10.8709
Traunstein,47.86825,12.64335
Traunreut,47.96269,12.59231
Trappenkamp,54.03988,10.21496
Traben-Trarbach,49.95076,7.11562
Tostedt,53.28333,9.71667
Tornesch,53.7,9.71667
Torgelow,53.63415,14.01346
Torgau,51.56016,12.99617
Tönning,54.31732,8.94096
Tönisvorst,51.32092,6.49412
Töging am Inn,48.26018,12.5846
Todtnau,47.82941,7.9438
Titz,51.00619,6.42477
Tittmoning,48.06164,12.7676
Titisee-Neustadt,47.92104,8.19063
Tirschenreuth,49.88263,12.33112
Timmendorfer Strand,53.9953,10.77676
Tiergarten,52.51667,13.36667
Tiefenbronn,48.82398,8.80129
Thum,50.67081,12.95091
Tholey,49.48374,7.03691
Tharandt,50.98525,13.58035
Thannhausen,48.28334,10.46917
Thalmässing,49.08834,11.2215
Thalheim,50.70077,12.84996
Thale,51.74861,11.041
Teutschenthal,51.45,11.8
Teublitz,49.22289,12.08727
Tettnang,47.66857,9.59132
Teterow,53.77545,12.57487
Teningen,48.12952,7.81205
Templin,53.11865,13.5022
Tempelhof,52.46667,13.4
Teltow,52.4031,13.26014
Telgte,51.97995,7.78293
Teisendorf,47.84921,12.81919
Tegel,52.57601,13.29389
Tecklenburg,52.21957,7.81357
Taunusstein,50.14993,8.15206
Taufkirchen,48.34987,12.13202
Taufkirchen,48.0486,11.61701
Taucha,51.38333,12.48333
Tauberbischofsheim,49.62472,9.66278
Tarp,54.66667,9.4
Tangstedt,53.73333,10.08333
Tangermünde,52.54463,11.97647
Tangerhütte,52.4353,11.80724
Tamm,48.91988,9.11556
Tacherting,48.07825,12.57008
Syke,52.91345,8.82209
Süßen,48.67934,9.75534
Süsel,54.08135,10.70172
Sundern,51.3281,8.00369
Sulzbach-Rosenberg,49.50126,11.74598
Sulzbach an der Murr,49.00303,9.5003
Sulzbach am Main,49.91149,9.15315
Sulzbach,50.13396,8.52797
Sulzbach,49.29882,7.05696
Sulz am Neckar,48.36241,8.63309
Sulingen,52.68373,8.80949
Suhl,50.60911,10.69401
Südlohn,51.94465,6.86723
Stuttgart,48.78232,9.17702
Stuhr,53.03333,8.75
Stühlingen,47.7458,8.44813
Strullendorf,49.84429,10.97208
Strausberg,52.57859,13.88741
Straubing,48.88126,12.57385
Strasburg,53.5103,13.74513
Stralsund,54.30911,13.0818
Straelen,51.4419,6.26639
Storkow,52.25662,13.93337
Stolzenau,52.51667,9.06667
Stolpen,51.04901,14.07943
Stollberg,50.70999,12.78034
Stolberg,50.77368,6.22595
Stockstadt am Main,49.97005,9.07153
Stockstadt am Rhein,49.80944,8.47278
Stockheim,50.30639,11.28172
Stöckheim,52.21055,10.52216
Stockelsdorf,53.8922,10.64713
Stockach,47.85105,9.0091
Steyerberg,52.57017,9.02423
Stetten am Kalten Markt,48.12419,9.07775
Stephanskirchen,47.85389,12.1856
Stendal,52.6069,11.85867
Stellingen,53.5922,9.9287
Stelle,53.38416,10.11138
Steinheim an der Murr,48.96821,9.27708
Steinheim am Albuch,48.6909,10.06382
Steinheim,51.87066,9.09136
Steinhagen,52,8.4
Steinfurt,52.15045,7.33664
Steinfeld,52.58596,8.21417
Steinenbronn,48.66667,9.11667
Steinen,47.64446,7.73914
Stein,49.41581,11.01599
Steinbach-Hallenberg,50.69624,10.56541
Steinbach am Taunus,50.16774,8.57278
Steinau an der Straße,50.31401,9.46335
Steilshoop,53.61028,10.05917
Steglitz,52.45606,13.332
Stegaurach,49.86543,10.84385
Staufenberg,50.66197,8.73158
Staßfurt,51.85186,11.58508
Starnberg,48.00193,11.34416
Stahnsdorf,52.38333,13.21667
Bad Staffelstein,50.10199,11.00128
Stadtroda,50.85684,11.72677
Stadtoldendorf,51.88242,9.6265
Stadtlohn,51.99399,6.91918
Stadtilm,50.77596,11.08262
Stadthagen,52.32333,9.20311
Stadtbergen,48.36641,10.84636
Stadtallendorf,50.82261,9.01294
Stade,53.59337,9.47629
Staaken,52.53661,13.15057
Sprockhövel,51.34669,7.24343
Springe,52.20845,9.55416
Spiesen-Elversberg,49.31667,7.13333
Speyer,49.32083,8.43111
Spenge,52.14021,8.48475
Spelle,52.36667,7.46667
Speichersdorf,49.87133,11.78123
Spangenberg,51.11644,9.6627
Spalt,49.17553,10.92453
Spaichingen,48.07477,8.73508
Sottrum,53.11667,9.23333
Sontra,51.07171,9.93558
Sonthofen,47.51821,10.28262
Sontheim an der Brenz,48.55235,10.29097
Sonsbeck,51.60741,6.37916
Sonnefeld,50.21667,11.13333
Sonneberg,50.3592,11.17463
Sondershausen,51.36973,10.87011
Sömmerda,51.15914,11.11524
Soltau,52.98638,9.84338
Solingen,51.17343,7.0845
Söhlde,52.18898,10.23239
Sohland,51.04089,14.41897
Sögel,52.85,7.51667
Soest,51.57558,8.10619
Bad Sobernheim,49.78636,7.65146
Sittensen,53.27615,9.50429
Sinzing,49,12.03333
Sinzig,50.54384,7.24639
Sinzheim,48.76667,8.16667
Sinsheim,49.2529,8.87867
Sinnersdorf,51.02445,6.81787
Sinn,50.65,8.33333
Singen,47.75935,8.8403
Sindelfingen,48.7,9.01667
Simmern,49.98198,7.52351
Simmerath,50.6,6.3
Simbach am Inn,48.26548,13.02309
Sigmaringen,48.08829,9.23033
Siemensstadt,52.54053,13.26294
Siegsdorf,47.82278,12.64277
Siegen,50.87481,8.02431
Siegburg,50.80019,7.20769
Langenhorn,53.66667,10.01667
Seubersdorf,49.16212,11.62714
Sersheim,48.96667,9.01667
Senftenberg,51.52517,14.00164
Sendenhorst,51.84303,7.82996
Senden,51.85645,7.48327
Senden,48.32441,10.04442
Selters,50.51681,8.28953
Selm,51.69689,7.46809
Seligenstadt,50.0432,8.97394
Selb,50.17058,12.13054
Sehnde,52.31394,9.9682
Seevetal,53.4,9.96667
Seesen,51.89095,10.17847
Seelze,52.39635,9.59727
Seelow,52.53392,14.38128
Seelbach,48.31055,7.94069
Seefeld,48.03505,11.21395
Sebnitz,50.9754,14.27579
Schwieberdingen,48.87644,9.07439
Schwetzingen,49.38217,8.5823
Schwerte,51.44387,7.5675
Schwerin,53.62937,11.41316
Schwendi,48.17424,9.97541
Schwelm,51.28635,7.29388
Schweinfurt,50.04937,10.22175
Schweich,49.82215,6.75256
Schwedt (Oder),53.05963,14.28154
Schwarzheide,51.47671,13.85559
Schwarzenfeld,49.38774,12.13484
Schwarzenbruck,49.35778,11.24333
Schwarzenberg,50.53791,12.78522
Schwarzenbek,53.50303,10.48055
Schwarzenbach an der Saale,50.22279,11.93504
Schwarmstedt,52.67794,9.61767
Schwanewede,53.23333,8.6
Schwandorf in Bayern,49.32534,12.1098
Schwalmtal,51.21667,6.26667
Schwalmstadt,50.93333,9.21667
Schwalbach am Taunus,50.15,8.53333
Schwalbach,49.3,6.81667
Schwaikheim,48.87733,9.34958
Schwaigern,49.14494,9.05525
Schwaig,49.46955,11.20064
Schwabmünchen,48.17928,10.75675
Schwäbisch Hall,49.11127,9.73908
Schwäbisch Gmünd,48.79947,9.79809
Kleinschwabhausen,48.40157,11.35729
Schwabach,49.33047,11.02346
Schwaan,53.94047,12.10715
Schüttorf,52.32281,7.22176
Schutterwald,48.45,7.88333
Bad Schussenried,48.00468,9.65741
Schulzendorf,52.35818,13.59842
Schrozberg,49.34528,9.97944
Schrobenhausen,48.56067,11.26071
Schriesheim,49.47372,8.6636
Schramberg,48.22399,8.38583
Schotten,50.50346,9.12516
Schortens,53.53333,7.95
Schorndorf,48.80537,9.52721
Schöppingen,52.1,7.23333
Schöppenstedt,52.14308,10.7745
Schopfheim,47.65105,7.82089
Schonungen,50.05008,10.30809
Schönkirchen,54.33333,10.23333
Schöningen,52.13802,10.96745
Schönheide,50.50458,12.52158
Schongau,47.8124,10.89664
Schöneiche,52.47286,13.69226
Schönefeld,52.38897,13.50374
Schöneberg,52.49801,13.3443
Schönebeck,52.01682,11.7307
Schönau am Königssee,47.60055,12.98704
Schönaich,48.65871,9.06012
Schömberg,48.78713,8.64495
Schöllnach,48.75412,13.17781
Schneverdingen,53.11685,9.79524
Schnelsen,53.63743,9.91969
Schneeberg,50.59465,12.64139
Schnaittach,49.55958,11.34328
Schmölln,50.89678,12.35339
Schmitten,50.26667,8.45
Schmelz,49.43333,6.85
Schmargendorf,52.47517,13.29071
Schmallenberg,51.15473,8.28505
Schmalkalden,50.72136,10.44386
Schlüsselfeld,49.75621,10.61873
Schlüchtern,50.34891,9.52532
Schlitz,50.67416,9.56102
Schliersee,47.73621,11.85936
Schliengen,47.75698,7.57645
Schleusingen,50.51076,10.75658
Schleswig,54.52021,9.56829
Bad Schlema,50.60257,12.67288
Schleiz,50.57866,11.81024
Schleiden,50.52896,6.47692
Schlangenbad,50.09322,8.10312
Schlangen,51.80978,8.84605
Schladen,52.02218,10.53967
Schkeuditz,51.39678,12.22141
Schipkau,51.51766,13.89738
Schilksee,54.41833,10.17193
Schiffweiler,49.36667,7.13333
Schifferstadt,49.38417,8.3775
Schiffdorf,53.53333,8.65
Schierstein,50.04457,8.19788
Schierling,48.83422,12.13946
Scheßlitz,49.97568,11.03299
Schermbeck,51.68333,6.86667
Schellerten,52.1853,10.10227
Schelklingen,48.37575,9.73273
Scheeßel,53.16667,9.48333
Scharbeutz,54.02389,10.75213
Schallstadt,47.95855,7.75755
Schalksmühle,51.2412,7.5279
Schäftlarn,47.99027,11.45591
Schaafheim,49.92417,9.00944
Bad Saulgau,48.01676,9.50064
Sauerlach,47.97171,11.65383
Satteldorf,49.16953,10.07957
Sassnitz,54.5157,13.64451
Sassenberg,51.99223,8.04068
Sasel,53.65385,10.11184
Sasbach,48.63971,8.09375
Sarstedt,52.23495,9.85411
Sankt Wendel,49.46633,7.16814
Sankt Leon,49.2675,8.59972
Sankt Johann,48.45397,9.34396
Sankt Ingbert,49.27697,7.11672
Sankt Georgen im Schwarzwald,48.12716,8.33513
St. Georg,53.55513,10.01231
Sankt Augustin,50.77538,7.197
Alt-Sanitz,53.81363,13.58786
Sangerhausen,51.47221,11.29533
Sandhausen,49.34278,8.65917
Sandersdorf,51.62841,12.26492
Sande,53.50489,8.01418
Salzweg,48.61667,13.48333
Salzwedel,52.85435,11.1525
Salzkotten,51.6717,8.60092
Salzhemmendorf,52.067,9.5872
Salzgitter,52.15705,10.4154
Salzbergen,52.33333,7.35
Salach,48.69198,9.73715
Saerbeck,52.17372,7.63395
Saarwellingen,49.3543,6.80487
Saarlouis,49.31366,6.75154
Saarburg,49.60641,6.54365
Saarbrücken,49.23262,7.00982
Saalfeld,50.64826,11.36536
Saal,48.90099,11.93196
Rüthen,51.4909,8.43596
Rutesheim,48.80808,8.94536
Rüsselsheim am Main,49.98955,8.42251
Ruppichteroth,50.84367,7.48409
Runkel,50.40574,8.15457
Rummelsburg,52.50146,13.4934
Rülzheim,49.15312,8.29287
Ruhstorf,48.53976,12.68305
Ruhpolding,47.76667,12.65
Ruhla,50.89296,10.36573
Rudow,52.42407,13.48529
Rudolstadt,50.72043,11.34046
Rüdesheim am Rhein,49.9789,7.92442
Rudersberg,48.88515,9.52927
Roxel,51.95229,7.53677
Rottweil,48.16783,8.62719
Rotthalmünster,48.35825,13.20162
Rottendorf,49.7923,10.02593
Rottenburg an der Laaber,48.70233,12.02717
Rottenburg,48.47629,8.93528
Rottach-Egern,47.68966,11.77065
Rotherbaum,53.5665,9.99265
Rothenburg ob der Tauber,49.37885,10.18711
Rothenburg,51.334,14.96874
Röthenbach an der Pegnitz,49.48301,11.24116
Roth,49.24762,11.09111
Roetgen,50.65,6.2
Rotenburg an der Fulda,50.99556,9.72838
Rotenburg,53.11125,9.41082
Rot am See,49.25,10.01667
Rot,49.26389,8.63444
Rostock,54.0887,12.14049
Roßwein,51.06589,13.18308
Roßtal,49.39567,10.88848
Roßleben,51.29886,11.43435
Roßlau,51.88736,12.24192
Roßdorf,49.85972,8.76167
Rösrath,50.89559,7.18175
Rosenthal,52.59976,13.37774
Rosenheim,47.85637,12.12247
Rosenfeld,48.28639,8.72357
Rosdorf,51.5,9.9
Rosbach vor der Höhe,50.30332,8.68976
Ronnenberg,52.31939,9.65544
Ronneburg,50.8634,12.18666
Rommerskirchen,51.03333,6.68333
Röhrmoos,48.32966,11.44672
Rohrdorf,47.79713,12.1701
Rohrbach,48.61667,11.56667
Rohrbach,48.28933,12.55603
Rohr,48.71852,9.09209
Rödinghausen,52.25,8.48333
Roding,49.19426,12.51956
Rodewisch,50.53083,12.41329
Rodenberg,52.31152,9.3564
Rodenbach,50.15,9.03333
Rodalben,49.2394,7.63962
Rockenhausen,49.62974,7.82134
Rochlitz,51.05007,12.79754
Röbel,53.37555,12.60372
Ritterhude,53.18289,8.7355
Rissen,53.58453,9.76594
Rinteln,52.18604,9.07917
Rimpar,49.85692,9.95705
Rimbach,49.625,8.76306
Rietberg,51.80924,8.42841
Riesa,51.30777,13.29168
Rielasingen-Worblingen,47.73465,8.84013
Riehl,50.96686,6.97572
Riegelsberg,49.3,6.93333
Riedlingen,48.15455,9.47558
Riedering,47.83874,12.20778
Riedenburg,48.96383,11.6888
Ribnitz-Damgarten,54.2422,12.45666
Rheurdt,51.46667,6.46667
Rheinsberg,53.09972,12.89885
Rheinhausen,51.40055,6.71187
Rheinfelden,47.56013,7.78715
Rheine,52.28509,7.44055
Rheinberg,51.54649,6.59525
Rheinbach,50.62562,6.94911
Rheinau,48.87173,8.19133
Rhede,51.83537,6.69602
Rheda-Wiedenbrück,51.84967,8.30017
Reutlingen,48.49144,9.20427
Reppenstedt,53.25,10.35
Renningen,48.76974,8.93871
Rennertshofen,48.75943,11.04544
Rendsburg,54.30182,9.67175
Renchen,48.5885,8.01321
Remscheid,51.17983,7.1925
Remagen,50.57879,7.22703
Rellingen,53.651,9.829
Reiskirchen,50.6,8.83333
Reisbach,48.57008,12.62799
Reinsdorf,50.69775,12.55555
Reinickendorf,52.56395,13.33552
Reinheim,49.82923,8.83572
Reinhausen,49.03092,12.11329
Reinfeld,53.8311,10.49227
Reinbek,53.51703,10.2488
Reilingen,49.29472,8.56917
Reichertshofen,48.65775,11.46612
Reichenbach an der Fils,48.71011,9.46429
Reichenbach/Vogtland,50.62279,12.30344
Reichelsheim,50.35638,8.87446
Reichelsheim,49.71211,8.83896
Rehburg-Loccum,52.46952,9.19957
Rehau,50.24921,12.03422
Regenstauf,49.12014,12.13027
Regensburg,49.01513,12.10161
Regen,48.9719,13.12824
Rees,51.76263,6.39778
Rednitzhembach,49.30095,11.07997
Recklinghausen,51.61379,7.19738
Recke,52.36885,7.72116
Rechberghausen,48.7308,9.64419
Ravensburg,47.78198,9.61062
Raunheim,50.0132,8.45253
Rauenberg,49.26943,8.70344
Raubling,47.7905,12.11088
Ratzeburg,53.69965,10.77256
Ratingen,51.29724,6.84929
Rathenow,52.60659,12.33696
Rath,50.92379,7.0927
Ratekau,53.95,10.73333
Rastede,53.25,8.2
Rastatt,48.85851,8.20965
Ranstadt,50.35739,8.98375
Rangsdorf,52.29126,13.41946
Rangendingen,48.38168,8.8894
Ramstein-Miesenbach,49.44452,7.55533
Raisdorf,54.28127,10.24915
Rain,48.69029,10.91611
Rahnsdorf,52.44115,13.68708
Rahlstedt,53.60194,10.15667
Rahden,52.43367,8.61263
Raesfeld,51.76667,6.85
Radolfzell,47.74194,8.97098
Radevormwald,51.20219,7.36027
Radeburg,51.21516,13.7281
Radebeul,51.10654,13.66047
Radeberg,51.11112,13.91199
Quierschied,49.31667,7.05
Quickborn,53.72831,9.90934
Querfurt,51.38124,11.60047
Quedlinburg,51.78843,11.15006
Quakenbrück,52.67502,7.94983
Pyrbaum,49.29622,11.28655
Putzbrunn,48.07579,11.71572
Püttlingen,49.2855,6.88723
Pulsnitz,51.1832,14.01416
Pullach im Isartal,48.06122,11.52148
Pulheim,50.99965,6.80632
Puchheim,48.15,11.35
Prüm,50.20785,6.42019
Pritzwalk,53.14945,12.17405
Prien am Chiemsee,47.85602,12.34623
Preußisch Oldendorf,52.30589,8.49341
Prenzlauer Berg,52.53878,13.42443
Prenzlau,53.31625,13.86261
Premnitz,52.53184,12.34845
Preetz,54.23575,10.27934
Pöttmes,48.58383,11.08762
Pottenstein,49.77131,11.40784
Potsdam,52.39886,13.06566
Pößneck,50.69358,11.59229
Porz am Rhein,50.88637,7.0583
Porta Westfalica,52.22961,8.91612
Poppenbüttel,53.65917,10.08472
Pommelsbrunn,49.50437,11.51101
Poll,50.91256,6.99057
Polch,50.29973,7.31315
Poing,48.17004,11.81863
Pocking,48.40149,13.31315
Pöcking,47.96667,11.3
Plüderhausen,48.79875,9.59587
Plön,54.16202,10.42765
Plochingen,48.71067,9.41949
Pliezhausen,48.55934,9.20749
Plettenberg,51.20949,7.87261
Pleinfeld,49.10473,10.98194
Pleidelsheim,48.9592,9.20311
Plauen,50.4973,12.13782
Plau am See,53.45821,12.26246
Plattling,48.77866,12.87509
Plankstadt,49.39444,8.59611
Planegg,48.10672,11.42483
Plaidt,50.3926,7.39251
Pirna,50.95843,13.93702
Pirmasens,49.20145,7.60529
Pinneberg,53.66732,9.78936
Pilsting,48.70116,12.65105
Piding,47.76667,12.91667
Philippsburg,49.2317,8.46074
Pfungstadt,49.80557,8.60307
Pfullingen,48.46458,9.22796
Pfullendorf,47.9261,9.2578
Pfronten,47.5822,10.54962
Pfreimd,49.49114,12.18069
Pforzheim,48.88436,8.69892
Pfedelbach,49.17806,9.505
Pfarrkirchen,48.43205,12.93812
Pfalzgrafenweiler,48.5265,8.56582
Pfaffenhofen an der Roth,48.35454,10.16184
Pfaffenhofen an der Ilm,48.53053,11.505
Petershausen-Ost,47.6721,9.191
Petershausen,48.40967,11.47056
Petershagen,52.52078,13.78748
Petershagen,52.37513,8.96538
Petersaurach,49.3,10.75
Perleberg,53.07583,11.85739
Penzberg,47.75293,11.377
Pentling,48.98343,12.0587
Penig,50.93336,12.70422
Peitz,51.85841,14.41138
Peiting,47.79549,10.92951
Peißenberg,47.80466,11.0699
Peine,52.31928,10.2352
Pegnitz,49.75216,11.54187
Pattensen,52.26448,9.76436
Passau,48.5665,13.43122
Pasing,48.14146,11.45599
Pasewalk,53.50627,13.98997
Parsberg,49.16074,11.71834
Parchim,53.42631,11.84875
Papenburg,53.07738,7.40444
Pankow,52.56926,13.40186
Paderborn,51.71905,8.75439
Oyten,53.05,9.01667
Overath,50.93275,7.28389
Ovelgönne,53.34189,8.42179
Ottweiler,49.40133,7.16424
Ottobrunn bei München,48.06489,11.66327
Ottobeuren,47.9413,10.29971
Ottersweier,48.67022,8.11323
Ottersberg,53.1099,9.14408
Otterndorf,53.81158,8.90206
Otterberg,49.50301,7.76995
Ottensen,53.55213,9.92421
Ottendorf-Okrilla,51.18333,13.83333
Othmarschen,53.55173,9.88632
Oststeinbek,53.54321,10.16939
Ostseebad Kühlungsborn,54.14763,11.74318
Ostseebad Binz,54.39995,13.61052
Östringen,49.21911,8.71192
Ostrhauderfehn,53.13333,7.61667
Ostrach,47.95,9.38333
Osthofen,49.70382,8.32419
Ostheim,50.93117,7.04412
Osterrönfeld,54.29013,9.699
Osterholz-Scharmbeck,53.22698,8.79528
Osterhofen,48.7,13.02221
Ostercappeln,52.35,8.23333
Osterburken,49.42997,9.42252
Osterburg,52.78721,11.75297
Ostbevern,52.04018,7.84229
Ossendorf,50.97059,6.90628
Osnabrück,52.27264,8.0498
Osdorf,53.57982,9.85826
Oschersleben,52.03039,11.22898
Oschatz,51.30001,13.10984
Ortenburg,48.54597,13.2225
Ortenberg,50.35584,9.05602
Oerlenbach,50.15,10.13333
Oranienburg,52.75577,13.24197
Oppum,51.32244,6.61518
Oppenheim,49.8547,8.35974
Opladen,51.06863,7.00387
Olsberg,51.35613,8.48899
Olpe,51.02899,7.85139
Olfen,51.70787,7.37893
Oldenburg in Holstein,54.29498,10.89043
Oldenburg,53.14118,8.21467
Olching,48.2,11.33333
Olbersdorf,50.87304,14.77035
Olbernhau,50.6587,13.3425
Öhringen,49.19884,9.5072
Ohlsdorf,53.62594,10.03145
Oftersheim,49.36528,8.58306
Offenburg,48.47377,7.94495
Offenbach an der Queich,49.19546,8.19779
Offenbach,50.10061,8.76647
Oettingen in Bayern,48.95274,10.60465
Oerlinghausen,51.95453,8.6622
Oer-Erkenschwick,51.64198,7.26451
Oelsnitz,50.72584,12.701
Oelsnitz,50.4147,12.1695
Oelde,51.8289,8.14724
Oedheim,49.24028,9.25333
Oederan,50.86064,13.17164
Oebisfelde,52.43421,10.98786
Odenthal,51.03333,7.11667
Ochtrup,52.20802,7.18988
Ochtendung,50.35,7.38333
Ochsenhausen,48.07029,9.9503
Ochsenfurt,49.66429,10.06227
Obrigheim,49.35194,9.09083
Oberviechtach,49.45809,12.41669
Oberursel,50.20731,8.57747
Obertshausen,50.07139,8.85123
Obertraubling,48.96667,12.16667
Oberthulba,50.19904,9.95882
Oberthal,49.51257,7.08382
Oberstenfeld,49.02611,9.32083
Oberstdorf,47.40724,10.27939
Oberstaufen,47.55568,10.02245
Oberschöneweide,52.46106,13.52108
Oberschleißheim,48.25,11.56667
Ober-Saulheim,49.86376,8.13526
Ober-Ramstadt,49.83078,8.74887
Obernkirchen,52.2721,9.12912
Oberndorf,48.2905,8.57221
Obernburg am Main,49.83577,9.13101
Obernbeck,52.20178,8.70404
Ober-Mörlen,50.3735,8.69087
Oberlungwitz,50.7823,12.70789
Oberkotzau,50.26236,11.93484
Oberkochen,48.78379,10.10519
Oberkirch,48.53241,8.07864
Oberkassel,50.71379,7.16638
Oberhausen-Rheinhausen,49.27389,8.47167
Oberhausen,51.47805,6.8625
Oberhaching,48.02455,11.59744
Obergünzburg,47.84545,10.41821
Oberding,48.31667,11.85
Oberderdingen,49.06556,8.80306
Oberboihingen,48.65,9.36667
Oberasbach,49.42275,10.95766
Oberammergau,47.59812,11.06692
Nußloch,49.32389,8.69556
Nürtingen,48.62565,9.34203
Nürnberg,49.45421,11.07752
Nünchritz,51.29993,13.38555
Nümbrecht,50.90427,7.54063
Nufringen,48.62253,8.89009
Nottuln,51.93333,7.35
Nossen,51.05798,13.29652
Nörvenich,50.80604,6.63952
Nortorf,54.16738,9.85437
Northeim,51.70662,9.99997
Nörten-Hardenberg,51.62878,9.93593
Nordwalde,52.08333,7.48333
Nordstemmen,52.16196,9.7835
Nördlingen,48.85122,10.48868
Nordkirchen,51.73827,7.52197
Nordhorn,52.43081,7.06833
Nordholz,53.78448,8.61354
Nordheim,49.10861,9.12778
Nordhausen,51.5018,10.7957
Norderstedt,53.6859,9.98041
Norderney,53.70828,7.15819
Nordenham,53.4861,8.48093
Norden,53.59552,7.20639
Nonnweiler,49.60762,6.96986
Nohfelden,49.58693,7.14283
Nittendorf,49.02459,11.96126
Nittenau,49.19425,12.26741
Nippes,50.96545,6.95314
Nikolassee,52.4227,13.18508
Niesky,51.29241,14.82107
Nierstein,49.87003,8.33647
Nienstedten,53.55556,9.84464
Niendorf,53.61769,9.95032
Nienburg,52.6461,9.22086
Nieheim,51.80499,9.11302
Niederzier,50.88333,6.46667
Niederwiesa,50.86667,13.01667
Niederwerrn,50.06149,10.1827
Niederstetten,49.4,9.91944
Niederschönhausen,52.58483,13.40272
Niederschöneweide,52.45564,13.51554
Nieder-Olm,49.91166,8.20533
Niedernhausen,50.16307,8.31338
Niederkrüchten,51.2,6.21667
Niederkassel,50.81503,7.03777
Nieder-Ingelheim,49.97756,8.07246
Niedergörsdorf,51.97943,12.98541
Niederfischbach,50.85,7.86667
Niedereschach,48.13333,8.53333
Niederaula,50.8,9.6
Aschau im Chiemgau,47.77689,12.32297
Niedenstein,51.23342,9.31029
Niebüll,54.78663,8.82854
Nideggen,50.69268,6.48437
Nidderau,50.23805,8.86704
Nidda,50.4133,9.00638
Neu Wulmstorf,53.46667,9.8
Neuwied,50.4336,7.47057
Neu-Ulm,48.39279,10.01112
Neutraubling,48.98737,12.201
Neustrelitz,53.3613,13.07292
Neustadt in Holstein,54.10707,10.8145
Neustadt-Glewe,53.37846,11.59264
Neustadt bei Coburg,50.32975,11.12058
Neustadt an der Weinstraße,49.35009,8.13886
Neustadt an der Waldnaab,49.73287,12.17773
Neustadt an der Donau,48.80705,11.76952
Neustadt an der Aisch,49.57953,10.61126
Neustadt am Rübenberge,52.50462,9.45871
Neustadt,53.55196,9.98558
Neue Neustadt,52.15,11.63333
Neustadt in Sachsen,51.02844,14.21785
Neustadt (Hessen),50.85,9.11667
Neuss,51.19807,6.68504
Neuruppin,52.92815,12.80311
Neuried,48.09322,11.46561
Neuötting,48.24102,12.68998
Neunkirchen am Main,49.923,11.64793
Neunkirchen,50.8,8
Neunkirchen,49.34449,7.18045
Neunburg vorm Wald,49.34782,12.38621
Neumünster,54.07399,9.98456
Neumarkt-Sankt Veit,48.36051,12.50723
Neumarkt in der Oberpfalz,49.28028,11.46278
Neulußheim,49.29333,8.52194
Neukölln,52.47719,13.43126
Neukirchen,50.86906,9.34655
Neukirchen,50.77955,12.86755
Neukirch/Lausitz,51.09727,14.30789
Neu-Isenburg,50.04832,8.69406
Neuhofen,49.42778,8.42472
Neuhof,50.45313,9.6175
Neuhausen auf den Fildern,48.68333,9.28333
Neuhausen,48.7926,8.77649
Neuhaus am Rennweg,50.51006,11.13787
Neuhaus,50.68333,10.93333
Neugraben-Fischbek,53.46579,9.84344
Neugersdorf,50.97729,14.60881
Neuffen,48.5546,9.3755
Neufahrn bei Freising,48.31588,11.66316
Neuenstein,49.2049,9.58
Neuenstadt am Kocher,49.23498,9.33215
Neuenrade,51.28278,7.7825
Neuenkirchen,53.03259,9.70642
Neuenkirchen,52.24472,7.37183
Neuenhagen,52.52985,13.68914
Neuendettelsau,49.28333,10.78333
Neuenbürg,48.84516,8.59574
Neuenburg am Rhein,47.81431,7.56005
Neudenau,49.29181,9.26975
Neuburg an der Donau,48.73218,11.18709
Neubulach,48.66092,8.69611
Neubrück,51.13434,6.63857
Neubrandenburg,53.56414,13.27532
Neubiberg,48.0771,11.65812
Neu-Anspach,50.31667,8.5
Nettetal,51.31667,6.28333
Nettersheim,50.49372,6.62896
Netphen,50.91667,8.1
Nersingen,48.42829,10.12356
Neresheim,48.75511,10.33041
Neckartenzlingen,48.58981,9.23478
Neckarsulm,49.18912,9.22527
Neckargemünd,49.38899,8.7959
Naunhof,51.2777,12.58827
Naumburg,51.24816,9.16569
Naumburg,51.14987,11.80979
Nauen,52.60701,12.87374
Nattheim,48.69963,10.24209
Nassau,50.31453,7.80025
Nandlstadt,48.53644,11.8073
Namborn,49.52166,7.1407
Nalbach,49.38333,6.78333
Naila,50.33034,11.70463
Nagold,48.5498,8.72366
Nackenheim,49.91528,8.33889
Nachrodt-Wiblingwerde,51.31667,7.61667
Nabburg,49.45347,12.17996
Mutterstadt,49.44139,8.35611
Mutlangen,48.82588,9.79714
Murrhardt,48.98191,9.57047
Murr,48.96207,9.25924
Murnau am Staffelsee,47.68085,11.20125
Murg,47.55492,8.02182
Münzenberg,50.45346,8.7743
Munster,52.98569,10.08756
Münster,51.96236,7.62571
Münster,49.92278,8.86778
Münsingen,48.41126,9.49704
Münnerstadt,50.24636,10.20187
Munderkingen,48.23568,9.64398
Hannoversch Münden,51.41505,9.65046
München,48.13743,11.57549
Müncheberg,52.50704,14.13716
Münchberg,50.18952,11.78823
Mülsen,50.75,12.56667
Müllheim,47.8082,7.63035
Mülheim,51.43218,6.87967
Mühlheim am Main,50.11667,8.83333
Stuttgart Mühlhausen,48.84232,9.23028
Mühlhausen,51.20896,10.45275
Mühlhausen,49.24861,8.72667
Mühldorf,48.2467,12.52155
Mühlacker,48.94754,8.83675
Muggensturm,48.86667,8.28333
Müggelheim,52.41137,13.66403
Mudersbach,50.82515,7.94347
Müden,52.52771,10.36011
Mudau,49.53444,9.20444
Mücheln,51.29688,11.80759
Much,50.90383,7.40306
Mössingen,48.40567,9.05419
Mosbach,49.35357,9.15106
Morsbach,50.86665,7.72787
Mörlenbach,49.59917,8.73472
Moritzburg,51.15922,13.68021
Moringen,51.69915,9.87107
Morbach,49.80772,7.12714
Moosinning,48.27708,11.84446
Moosburg,48.47089,11.93811
Montabaur,50.43588,7.8232
Monschau,50.55462,6.24001
Monheim am Rhein,51.09162,6.89217
Mönchengladbach,51.18539,6.44172
Mömlingen,49.85972,9.08333
Mömbris,50.06921,9.16371
Mölln,53.61702,10.68742
Molfsee,54.26374,10.06564
Molbergen,52.85805,7.92548
Möglingen,48.88741,9.12694
Moers,51.45342,6.6326
Mockrehna,51.50757,12.81418
Möckmühl,49.3249,9.35837
Möckern,52.14099,11.95203
Moabit,52.52635,13.33903
Mittweida,50.98622,12.97537
Mitterteich,49.95141,12.24206
Mittenwalde,52.26007,13.53945
Mittenwald,47.4422,11.26187
Mittenaar,50.7,8.38333
Mittelschöntal,48.94615,9.3952
Mittegroßefehn,53.39165,7.56602
Minden,52.28953,8.91455
Mindelheim,48.04578,10.49222
Miltenberg,49.70452,9.26725
Miesbach,47.78903,11.83382
Mickten,51.08271,13.70871
Michendorf,52.31352,13.02996
Michelstadt,49.67569,9.00373
Michelau,50.16233,11.11207
Meuselwitz,51.04315,12.29935
Metzingen,48.53695,9.2833
Mettmann,51.2504,6.97536
Mettingen,52.31667,7.78333
Metelen,52.14434,7.2127
Meßstetten,48.18317,8.96565
Meßkirch,47.99457,9.11479
Meschede,51.3502,8.28332
Merzig,49.44331,6.63874
Merseburg,51.35478,11.98923
Mering,48.2656,10.98461
Merchweiler,49.35,7.05
Meppen,52.69064,7.29097
Mengkofen,48.71894,12.44047
Mengerskirchen,50.56392,8.15555
Mengenich,50.9785,6.86737
Mengen,48.04951,9.33005
Mendig,50.36667,7.28333
Menden,51.44337,7.77825
Memmingen,47.98372,10.18527
Memmelsdorf,49.93012,10.95921
Melsungen,51.13029,9.55236
Mellrichstadt,50.42849,10.30334
Melle,52.20197,8.33826
Meldorf,54.09182,9.0687
Meitingen,48.54586,10.85179
Meissen,51.16158,13.4737
Meiningen,50.56787,10.41521
Meinerzhagen,51.1074,7.64838
Meinersen,52.47436,10.35247
Meiderich,51.46667,6.76667
Mehrhoog,51.73826,6.51164
Meersburg,47.69419,9.27113
Meerbusch,51.25268,6.68807
Meerane,50.84688,12.46473
Medebach,51.19713,8.70635
Meckesheim,49.32167,8.81944
Meckenheim,50.62388,7.02942
Meckenbeuren,47.7,9.56667
Mechernich,50.59304,6.65224
Mayen,50.32797,7.22277
Maxhütte-Haidhof,49.19963,12.09229
Maxdorf,49.48806,8.29167
Maulbronn,48.99958,8.80337
Marzahn,52.54525,13.56983
Marsberg,51.46171,8.84949
Marpingen,49.45228,7.0582
Marl,51.65671,7.09038
Markt Schwaben,48.18949,11.8691
Marktredwitz,50.00443,12.08593
Marktoberdorf,47.77964,10.61713
Markt Indersdorf,48.36058,11.37789
Marktheidenfeld,49.8454,9.60359
Markt Erlbach,49.49367,10.65265
Markranstädt,51.30146,12.2202
Markneukirchen,50.31144,12.32951
Markkleeberg,51.2755,12.36906
Märkisches Viertel,52.59841,13.35766
Markgröningen,48.90493,9.08059
Markdorf,47.71916,9.39028
Marienheide,51.08317,7.53087
Marienfelde,52.41868,13.36723
Mariendorf,52.4378,13.38109
Marienberg,50.65051,13.16122
Marburg an der Lahn,50.80904,8.77069
Marbach am Neckar,48.93964,9.25995
Mannheim,49.4891,8.46694
Manching,48.71656,11.49393
Malsch,48.88333,8.33333
Malente,54.17226,10.55968
Malchow,53.47477,12.4221
Malchin,53.7399,12.76539
Maisach,48.21667,11.26667
Mainz,49.98419,8.2791
Maintal,50.15,8.83333
Mainleus,50.09987,11.37664
Mainhardt,49.07611,9.55639
Mainburg,48.64182,11.78093
Mainaschaff,49.98167,9.09
Mahlsdorf,52.50935,13.61373
Magstadt,48.74471,8.96675
Magdeburg,52.12773,11.62916
Machern,51.36667,12.63333
Lützelbach,49.74233,8.76687
Lütjenburg,54.29188,10.58945
Lurup,53.59266,9.87697
Lunzenau,50.96269,12.75594
Lünen,51.61634,7.52872
Lüneburg,53.2509,10.41409
Lügde,51.95828,9.24706
Lugau,50.73843,12.74861
Ludwigslust,53.32917,11.49714
Ludwigshafen am Rhein,49.48121,8.44641
Ludwigsfelde,52.30322,13.25405
Ludwigsburg,48.89731,9.19161
Lüdinghausen,51.7683,7.44379
Lüdenscheid,51.21977,7.6273
Luckenwalde,52.09029,13.16772
Luckau,51.85245,13.70735
Lüchow,52.96811,11.15397
Lübz,53.46261,12.02917
Lübeck,53.86893,10.68729
Lubnjow,51.86217,13.95168
Lubin,51.93814,13.88826
Lübbecke,52.30699,8.61423
Lübars,52.61591,13.3535
Loxstedt,53.46667,8.65
Lotte,52.28333,7.91667
Lößnitz,50.62181,12.73147
Loßburg,48.4,8.45
Losheim,49.5099,6.74549
Loschwitz,51.05386,13.81393
Lorsch,49.65,8.56667
Lörrach,47.61497,7.66457
Lorch,48.79833,9.6914
Löningen,52.73678,7.75809
Lommatzsch,51.19537,13.30917
Lollar,50.64652,8.70495
Lohra,50.73333,8.63333
Lohr am Main,49.98922,9.57223
Lohne,52.66625,8.2375
Lohne,52.49778,7.22629
Löhne,52.18848,8.6922
Lohmar,50.83868,7.21399
Lohfelden,51.26667,9.53333
Löffingen,47.88405,8.34384
Löchgau,49.00361,9.10639
Löbtau,51.04358,13.69444
Bad Lobenstein,50.45223,11.6393
Löbau,51.09954,14.66738
Litzendorf,49.91444,11.01028
Lippstadt,51.67369,8.34482
Linz am Rhein,50.56884,7.28445
Linnich,50.98002,6.27049
Linn,51.33743,6.64241
Lingenfeld,49.25389,8.33861
Lingen,52.52143,7.31845
Lindlar,51.01959,7.37758
Lindenfels,49.68369,8.78151
Lindau,47.54612,9.68431
Limburgerhof,49.42444,8.39194
Limburg an der Lahn,50.3836,8.0503
Limbach-Oberfrohna,50.85882,12.76165
Lilienthal,53.14193,8.90338
Lienen,52.15,7.98333
Liebenburg,52.02176,10.43169
Lichterfelde,52.4333,13.30762
Lichtentanne,50.69255,12.42585
Lichtenstein,50.75659,12.63025
Lichtenrade,52.39844,13.40637
Lichtenfels,50.14567,11.05928
Lichtenberg,52.51395,13.49975
Lichtenau,51.61707,8.89665
Lichtenau,48.72607,8.00486
Lich,50.52085,8.81567
Leverkusen,51.0303,6.98432
Leutkirch,47.82672,10.0205
Leutershausen,49.29869,10.41189
Leutenbach,48.88791,9.39267
Leuna,51.31783,12.01589
Leun,50.55129,8.35836
Leuben,51.01122,13.82029
Leopoldshöhe,52.01246,8.69834
Leonberg,48.8,9.01667
Lenzkirch,47.86832,8.20211
Lensahn,54.21652,10.88326
Lennestadt,51.11721,8.06707
Lenggries,47.68333,11.56667
Lengerich,52.18661,7.86043
Lengenfeld,50.5694,12.36408
Lengede,52.20487,10.30775
Lemsahl-Mellingstedt,53.68998,10.09648
Lemgo,52.02786,8.89901
Leisnig,51.15743,12.9279
Leipzig,51.33962,12.37129
Leipheim,48.45004,10.22278
Leinfelden-Echterdingen,48.69406,9.16809
Leinefelde-Worbis,51.38796,10.3262
Leinburg,49.45167,11.31
Leimen,49.34737,8.68733
Leichlingen,51.10628,7.01873
Lehrte,52.37193,9.97919
Lehre,52.32793,10.66899
Legden,52.03333,7.1
Leer,53.23157,7.461
Leegebruch,52.7234,13.19304
Leck,54.76667,8.98333
Lebach,49.41122,6.90988
Lauterbach,50.63558,9.39777
Lauter,50.56264,12.73513
Laupheim,48.22786,9.87874
Lauingen,48.56775,10.42706
Lauffen am Neckar,49.0734,9.14567
Laufenburg,47.56512,8.06045
Laufen,47.93568,12.92856
Lauf an der Pegnitz,49.51386,11.28247
Laufach,50.01667,9.3
Lauenburg,53.37199,10.55654
Laudenbach,49.61333,8.65389
Lauchhammer,51.48813,13.76623
Laubach,50.54196,8.99034
Lathen,52.86667,7.31667
Lastrup,52.79468,7.86715
Lappersdorf,49.04694,12.0913
Lankwitz,52.43623,13.3459
Lankow,53.64983,11.36913
Langweid,48.49095,10.8531
Langwedel,52.97864,9.18542
Langquaid,48.82318,12.05134
Langgöns,50.5,8.66667
Langerwehe,50.81667,6.35
Langenzenn,49.49463,10.7923
Langenselbold,50.17657,9.04003
Langenhagen,52.44758,9.73741
Langenfeld,51.10821,6.94831
Langenberg,51.77206,8.31809
Langenau,48.49616,10.11849
Langenargen,47.59858,9.54163
Langen,53.60554,8.59509
Langen,49.98955,8.66852
Langelsheim,51.93789,10.33264
Landstuhl,49.41306,7.57021
Landshut,48.52961,12.16179
Landsberg am Lech,48.04819,10.88282
Landau in der Pfalz,49.19844,8.11692
Landau an der Isar,48.67249,12.69316
Lampertheim,49.59786,8.4725
Lamme,52.26921,10.4413
Lambsheim,49.51361,8.28778
Laichingen,48.48939,9.68612
Lahr,48.34042,7.86886
Lahnstein,50.3,7.61667
Lage,51.99223,8.79301
Bad Laer,52.1,8.08333
Laer,52.05555,7.35775
Ladenburg,49.47307,8.60896
Ladbergen,52.13333,7.75
Lachendorf,52.61667,10.25
Laboe,54.40323,10.22648
Laatzen,52.31506,9.79739
Bad Laasphe,50.93139,8.42502
Laage,53.9256,12.34694
Kyritz,52.94212,12.39704
Kusterdingen,48.52291,9.11977
Kusel,49.53772,7.40472
Kürten,51.05,7.26667
Küps,50.19265,11.27599
Kuppenheim,48.82794,8.25417
Kupferzell,49.22778,9.69
Künzelsau,49.2818,9.68352
Künzell,50.5442,9.71792
Kümmersbruck,49.41917,11.88833
Külsheim,49.66942,9.52361
Kulmbach,50.10068,11.45032
Kuchen,48.63583,9.79989
Krumbach,48.24182,10.3632
Kropp,54.41215,9.50848
Kronshagen,54.33734,10.08214
Kronberg,50.181,8.513
Kronau,49.2225,8.63111
Kronach,50.23963,11.33308
Kriftel,50.08408,8.46977
Kreuztal,50.96775,7.98848
Kreuzberg,52.49973,13.40338
Kreuzau,50.74699,6.49069
Kressbronn am Bodensee,47.5976,9.59707
Kremmen,52.76216,13.02515
Kreiensen,51.85363,9.96481
Krefeld,51.33645,6.55381
Krauchenwies,48.01651,9.24757
Kranenburg,51.78333,6.01667
Krailling,48.1,11.4
Kötzting,49.17649,12.85515
Köthen,51.75185,11.97093
Korschenbroich,51.19139,6.51352
Kornwestheim,48.86158,9.18569
Korntal,48.83218,9.1214
Korbach,51.27561,8.873
Korb,48.84303,9.36258
Köpenick,52.4455,13.57455
Berlin Köpenick,52.44254,13.58228
Konz,49.70045,6.57652
Konstanz,47.66033,9.17582
Konradshöhe,52.58535,13.22758
Könnern,51.6712,11.77068
Königs Wusterhausen,52.30141,13.633
Königswinter,50.67734,7.19245
Königstein im Taunus,50.17943,8.47132
Königslutter am Elm,52.25116,10.81683
Bad Königshofen im Grabfeld,50.30082,10.46887
Königsfeld im Schwarzwald,48.13814,8.41973
Königsee,50.66143,11.09748
Königsbrunn,48.27506,10.89178
Königsbronn,48.74317,10.11193
Köngen,48.68333,9.36667
Köln,50.93333,6.95
Kölleda,51.18745,11.24488
Kolkwitz,51.75,14.25
Kolitzheim,49.91667,10.23333
Kolbermoor,47.84965,12.06696
Koblenz,50.35357,7.57883
Knittlingen,49.02487,8.75606
Knetzgau,49.98333,10.55
Klotzsche,51.11053,13.76862
Klötze,52.62725,11.16424
Klipphausen,51.06841,13.51374
Klingenthal,50.35963,12.46463
Klingenstein,48.41849,9.90812
Klingenberg am Main,49.78507,9.18025
Kleve,51.78826,6.13865
Kleinzschocher,51.31568,12.31979
Kleinwallstadt,49.87464,9.16927
Klein Schwülper,52.34153,10.42903
Kleinostheim,50,9.06667
Kleinmachnow,52.40786,13.22514
Kleinblittersdorf,49.1578,7.03734
Klausdorf,54.30899,10.21372
Kladow,52.45423,13.14445
Kitzscher,51.16444,12.5526
Kitzingen,49.73973,10.15072
Kißlegg,47.78894,9.88383
Kissing,48.30375,10.97088
Kirn,49.78912,7.45765
Kirkel,49.28333,7.23333
Kirchzarten,47.96667,7.95
Kirchwerder,53.41972,10.20156
Kirchseeon,48.07143,11.88875
Kirchlinteln,52.94236,9.31811
Kirchlengern,52.2,8.63333
Kirchhundem,51.08556,8.08893
Kirchheim unter Teck,48.64683,9.45378
Kirchheimbolanden,49.66249,8.01513
Kirchheim bei München,48.17656,11.75563
Kirchheim am Neckar,49.045,9.14222
Kirchhain,50.8272,8.92806
Kirchentellinsfurt,48.53315,9.14732
Kirchen,50.80849,7.88634
Kirchdorf am Inn,48.24755,12.98453
Kirchberg,50.6219,12.52449
Kirchardt,49.205,8.99167
Kippenheim,48.29564,7.8251
Kierspe,51.13403,7.59075
Kiel,54.32133,10.13489
Kiefersfelden,47.61409,12.19096
Kevelaer,51.58243,6.24603
Ketzin,52.47809,12.8453
Ketsch,49.36778,8.53111
Kessenich,50.71244,7.1113
Kerpen,50.86991,6.69691
Kenzingen,48.1963,7.76974
Kempten (Allgäu),47.72674,10.31389
Kempen,51.36432,6.41858
Kemnath,49.87007,11.89077
Kelsterbach,50.06135,8.52916
Kellinghusen,53.95202,9.71959
Kelkheim,50.13703,8.4502
Kelheim,48.91725,11.88618
Kehl,48.57297,7.81523
Kaulsdorf,52.51732,13.58871
Kaufering,48.09121,10.87913
Kaufbeuren,47.88238,10.62192
Kastellaun,50.06922,7.44154
Kastel,50.00994,8.28291
Kassel,51.31667,9.5
Karstädt,53.16215,11.74242
Karow,52.60904,13.48117
Karlstadt,49.96034,9.77239
Karlsruhe,49.00937,8.40444
Karlshuld,48.6819,11.28503
Karlshorst,52.48419,13.53185
Karlsfeld,48.22697,11.47573
Karben,50.23019,8.77155
Kappelrodeck,48.59182,8.11692
Kappeln,54.66122,9.9313
Kandern,47.71393,7.66237
Kandel,49.08277,8.1972
Kamp-Lintfort,51.50467,6.54587
Kamenz,51.26798,14.09374
Kamen,51.59231,7.6638
Kaltenkirchen,53.83244,9.96042
Kall,50.54223,6.56297
Kalkar,51.73907,6.29101
Kalefeld,51.8,10.03333
Kaiserslautern,49.443,7.77161
Kahl am Main,50.06981,9.00553
Kahla,50.80651,11.58516
Kaarst,51.22929,6.61883
Jüterbog,51.99607,13.07979
Jülich,50.92149,6.36267
Jüchen,51.1,6.5
Jork,53.53198,9.68076
Jöhlingen,49.03218,8.5735
Johannisthal,52.44653,13.5066
Johanngeorgenstadt,50.43254,12.7114
Jockgrim,49.09288,8.27468
Jever,53.57368,7.89806
Jestetten,47.65,8.56667
Jesteburg,53.30966,9.95262
Jessen,51.79337,12.95762
Jena,50.92878,11.5899
Jahnsdorf,50.74509,12.85414
Itzehoe,53.92099,9.51529
Issum,51.53333,6.43333
Isselburg,51.83232,6.46428
Ispringen,48.91667,8.66667
Isny,47.6926,10.03857
Ismaning,48.23333,11.68333
Isernhagen Farster Bauerschaft,52.47093,9.84179
Iserlohn,51.37547,7.70281
Isenbüttel,52.43333,10.58333
Isen,48.21203,12.05672
Ingolstadt,48.76508,11.42372
Ingelheim am Rhein,49.97078,8.05883
Ingelfingen,49.30028,9.65303
Inden,50.84306,6.36004
Immenstadt im Allgäu,47.55996,10.21394
Immenstaad am Bodensee,47.66667,9.36667
Immenhausen,51.42763,9.48017
Immendingen,47.93333,8.73333
Ilvesheim,49.47404,8.5674
Ilshofen,49.17015,9.91825
Ilsfeld,49.05548,9.24598
Ilsenburg,51.86695,10.67817
Ilmenau,50.68322,10.91858
Illingen,49.37362,7.04758
Illingen,48.95616,8.92459
Illertissen,48.22336,10.10347
Ihringen,48.04303,7.6476
Igersheim,49.49444,9.81694
Idstein,50.21773,8.26679
Idar-Oberstein,49.71443,7.30776
Ichenhausen,48.37119,10.30706
Ibbenbueren,52.27964,7.71457
Hüttlingen,48.89266,10.10064
Hutthurm,48.67276,13.47146
Husum,54.4858,9.05239
Hürth,50.87079,6.86761
Hünxe,51.63405,6.69741
Hünfeld,50.67966,9.76727
Hummelsbüttel,53.64773,10.04149
Humboldtkolonie,50.93182,6.99469
Hüllhorst,52.275,8.669
Hüfingen,47.92543,8.48831
Hude,53.10766,8.46322
Hückeswagen,51.14979,7.34471
Hückelhoven,51.0555,6.22658
Hoyerswerda,51.43787,14.23549
Höxter,51.77501,9.38155
Hövelhof,51.81667,8.65
Hösbach,50.00646,9.20765
Horstmar,52.08098,7.30539
Hörstel,52.29763,7.58382
Horst,53.80959,9.62456
Horneburg,53.50672,9.57546
Horn,53.55406,10.08989
Horn,51.87151,8.9451
Horb am Neckar,48.44423,8.6913
Homburg,49.32637,7.33867
Homberg,51.02994,9.40261
Homberg,50.73108,8.99644
Holzwickede,51.5,7.63333
Holzminden,51.82798,9.4455
Holzkirchen,47.87663,11.70181
Holzgerlingen,48.63969,9.01149
Hollfeld,49.93793,11.29153
Holle,52.08721,10.16012
Holdorf,52.58333,8.11667
Höhr-Grenzhausen,50.43474,7.66903
Hohenwestedt,54.08886,9.65359
Hohenstein-Ernstthal,50.80064,12.71287
Hohen Neuendorf,52.67631,13.27775
Hohenmölsen,51.15769,12.1
Hohenlockstedt,53.96817,9.62016
Hohenhameln,52.25755,10.06416
Hohenbrunn,48.04785,11.70224
Höhenberg,50.941,7.027
Hohberg,48.3227,7.89972
Hofheim in Unterfranken,50.13675,10.52321
Hofheim am Taunus,50.09019,8.4493
Hofgeismar,51.49607,9.385
Hofbieber,50.58629,9.83534
Hof,50.31297,11.91261
Hockenheim,49.32334,8.55194
Höchst im Odenwald,49.79972,8.99944
Höchstädt an der Donau,48.61124,10.56816
Höchstadt an der Aisch,49.70617,10.81329
Hochheim am Main,50.01436,8.35218
Hochfeld,51.41943,6.75462
Höchberg,49.78446,9.88223
Hitzacker,53.15254,11.04418
Hirschau,49.54396,11.94617
Hirschaid,49.81789,10.98918
Hinte,53.41667,7.18333
Hilzingen,47.76667,8.78333
Hilter,52.13573,8.14715
Hilpoltstein,49.19047,11.1906
Hille,52.33333,8.75
Hildesheim,52.15077,9.95112
Hilden,51.16818,6.93093
Hildburghausen,50.42553,10.73184
Hilchenbach,50.99687,8.11062
Hiddenhausen,52.16667,8.61667
Heusweiler,49.33632,6.93036
Heusenstamm,50.05553,8.80076
Heuchelheim,50.58333,8.63333
Heubach,48.79267,9.9337
Hettstedt,51.6503,11.51146
Hessisch Oldendorf,52.17269,9.24913
Hessisch Lichtenau,51.19954,9.71857
Herzogenrath,50.86874,6.09317
Herzogenaurach,49.56798,10.88565
Herzberg am Harz,51.65546,10.33938
Herzberg,51.68692,13.22016
Herxheim am Berg,49.50917,8.17917
Herten,51.59638,7.14387
Herscheid,51.17901,7.74355
Hersbruck,49.51083,11.43151
Herrsching am Ammersee,47.99888,11.17679
Herrieden,49.23779,10.5035
Herrenberg,48.59523,8.86648
Heroldsberg,49.53247,11.15551
Heroldsbach,49.69342,10.99882
Herne,51.5388,7.22572
Hermsdorf,52.61421,13.30587
Hermsdorf,50.89694,11.85549
Hermeskeil,49.65528,6.94407
Hermannsburg,52.83254,10.08957
Heringen,50.88798,10.00717
Herford,52.11457,8.67343
Herdorf,50.77704,7.95366
Herdecke,51.39999,7.43584
Herbstein,50.56105,9.34592
Herbrechtingen,48.62173,10.176
Herborn,50.68135,8.30369
Herbolzheim,48.21884,7.77746
Heppenheim an der Bergstrasse,49.64145,8.63206
Hennigsdorf,52.63598,13.20419
Hennef (Sieg),50.77555,7.28308
Hengersberg,48.77255,13.05485
Hemsbach,49.59075,8.64779
Hemmoor,53.68702,9.15492
Hemmingen,52.31425,9.72359
Hemmingen,48.86667,9.03333
Hemhofen,49.68333,10.93333
Hemer,51.38707,7.77019
Hemau,49.05399,11.78195
Helsa,51.25981,9.68872
Helmstedt,52.2279,11.00985
Helmbrechts,50.23557,11.71589
Hellersdorf,52.53319,13.6088
Hellerau,51.11667,13.75
Hellenthal,50.48333,6.43333
Heitersheim,47.87468,7.65721
Heinsberg,51.06358,6.0998
Heiningen,48.66177,9.64977
Heinersdorf,52.57173,13.43757
Heimsheim,48.80656,8.86744
Heilsbronn,49.33572,10.78741
Heilbad Heiligenstadt,51.37819,10.13744
Heiligensee,52.61449,13.24501
Heiligenhaus,51.32662,6.97106
Heiligenhafen,54.37037,10.97628
Heilbronn,49.13995,9.22054
Heikendorf,54.36667,10.2
Heidesheim,49.58247,8.19537
Heidenheim an der Brenz,48.67798,10.15162
Heidenau,50.97221,13.86741
Heiden,51.83333,6.93333
Heidelberg,49.40768,8.69079
Heideck,49.13365,11.12726
Heide,54.19562,9.09742
Heek,52.11667,7.1
Heddesheim,49.50556,8.60361
Hechingen,48.35149,8.96317
Hebertshausen,48.28959,11.46526
Havixbeck,51.98333,7.41667
Havelberg,52.83088,12.07552
Hauzenberg,48.64957,13.62645
Hausham,47.7466,11.84069
Hausbruch,53.47424,9.88289
Hausach,48.28426,8.17602
Hattingen,51.39894,7.18557
Hattersheim,50.06906,8.48632
Hatten,53.05,8.38333
Haßloch,49.36278,8.25806
Haßfurt,50.03521,10.5156
Haslach im Kinzigtal,48.27773,8.08941
Haslach,48.56531,8.05658
Haselünne,52.67412,7.4846
Haselhorst,52.54409,13.23743
Hasbergen,52.23754,7.96114
Harvestehude,53.5792,9.99064
Hartha,51.09863,12.97391
Hartenstein,50.66236,12.66966
Harsum,52.21045,9.96486
Harsewinkel,51.96224,8.22766
Harsefeld,53.45399,9.50297
Harrislee,54.8,9.38333
Haren,52.79262,7.24142
Hardheim,49.61194,9.47194
Hardegsen,51.65227,9.8305
Harburg,53.46057,9.98388
Harburg,48.78674,10.68927
Hannover,52.37052,9.73322
Hänigsen,52.48425,10.09129
Handewitt,54.76667,9.33333
Hanau am Main,50.13423,8.91418
Hamminkeln,51.73262,6.59031
Hammelburg,50.11633,9.89143
Hamm,53.55487,10.05742
Hamm,51.68033,7.82089
Hameln,52.10397,9.35623
Wandsbek,53.58334,10.08305
Marienthal,53.56667,10.08333
Hamburg-Mitte,53.55,10.01667
Eimsbüttel,53.57416,9.95679
Altona,53.55,9.93333
Hamburg,53.55073,9.99302
Hambühren,52.63333,9.98333
Hambrücken,49.19,8.54056
Hambergen,53.30826,8.8252
Halver,51.18612,7.49817
Haltern am See,51.74297,7.18163
Halstenbek,53.63333,9.85
Hallstadt,49.92901,10.87539
Halle,52.06007,8.36083
Halle (Saale),51.48158,11.97947
Hallbergmoos,48.32747,11.75142
Halensee,52.49005,13.29602
Haldensleben I,52.28906,11.40982
Halberstadt,51.89562,11.05622
Hakenfelde,52.55877,13.20831
Haiterbach,48.52066,8.64435
Hainichen,50.97044,13.12287
Haigerloch,48.36614,8.80357
Haiger,50.74162,8.20778
Haibach,49.96444,9.20722
Hahnbach,49.53389,11.80302
Hagenow,53.43134,11.19159
Hagenbach,49.01734,8.25024
Hagen,52.19629,7.98041
Hagen,51.36081,7.47168
Hage,53.60274,7.28527
Hadamar,50.44593,8.04253
Hachenburg,50.65998,7.82276
Haar,48.10881,11.72653
Haan,51.19382,7.0133
Haag in Oberbayern,48.16196,12.17942
Guxhagen,51.2,9.48333
Gütersloh,51.90693,8.37853
Güstrow,53.7972,12.17337
Gunzenhausen,49.11663,10.75971
Günzburg,48.45599,10.27695
Gundelsheim,49.2833,9.16037
Gundelfingen,48.55347,10.37223
Gundelfingen,48.04246,7.8657
Gummersbach,51.02608,7.56473
Güglingen,49.06642,9.00175
Gudensberg,51.17706,9.36748
Guben,51.94993,14.7055
Gschwend,48.93333,9.74436
Grünwald,48.03947,11.5232
Grünstadt,49.56302,8.16279
Grünheide,52.42343,13.81324
Grunewald,52.48338,13.26586
Grünberg,50.59403,8.95866
Grünau,52.41642,13.58039
Großzschocher,51.30147,12.32322
Groß-Zimmern,49.8741,8.82898
Groß-Umstadt,49.86899,8.9321
Großschönau,50.9,14.68333
Großschirma,50.96602,13.2859
Großrosseln,49.20296,6.84148
Großröhrsdorf,51.14528,14.01917
Groß Reken,51.83042,7.04544
Großräschen,51.5876,14.01093
Großpösna,51.26667,12.5
Großostheim,49.91985,9.07596
Großkrotzenburg,50.08333,8.98333
Groß Kreutz,52.40281,12.7794
Großkarolinenfeld,47.89102,12.08101
Großheubach,49.72834,9.2228
Großhansdorf,53.66667,10.28333
Groß-Gerau,49.92139,8.48255
Groß Flottbek,53.5623,9.88688
Großenlüder,50.5925,9.54231
Großenkneten,52.94377,8.25323
Großenhain,51.28951,13.5335
Großbottwar,49.00147,9.29348
Groß Borstel,53.61366,9.98259
Großbeeren,52.35862,13.30994
Großauheim,50.10292,8.94835
Großalmerode,51.25858,9.7845
Gronau,52.21099,7.02238
Gronau,52.0846,9.77678
Grömitz,54.15052,10.96011
Groitzsch,51.15536,12.28279
Gröbenzell,48.2,11.36667
Grimmen,54.11215,13.04051
Grimma,51.23367,12.71959
Griesheim,49.86085,8.5725
Bad Griesbach,48.45181,13.19329
Grevesmühlen,53.86337,11.1916
Grevenbroich,51.09102,6.5827
Greven,52.09364,7.59396
Grenzach-Wyhlen,47.55,7.68333
Greiz,50.65778,12.19918
Universitäts- und Hansestadt Greifswald,54.08905,13.40244
Greifenstein,50.61667,8.3
Grefrath,51.3363,6.34072
Greding,49.04699,11.35703
Grebenstein,51.44648,9.4125
Grebenhain,50.48924,9.33855
Grävenwiesbach,50.39024,8.4569
Grassau,47.78099,12.45359
Grasbrunn,48.07905,11.74361
Grasberg,53.18333,8.98333
Gransee,53.00704,13.1575
Grafing bei München,48.04596,11.96797
Grafenwöhr,49.71728,11.90645
Gräfenhainichen,51.72892,12.45651
Grafenau,48.85768,13.3974
Gräfelfing,48.11878,11.42939
Grabow,53.27966,11.56502
Gottmadingen,47.73511,8.77687
Göttingen,51.53443,9.93228
Gotha,50.94823,10.70193
Goslar,51.90425,10.42766
Görlitz,51.15518,14.98853
Gorbitz,51.0455,13.66108
Göppingen,48.70354,9.65209
Gommern,52.07391,11.82297
Gomaringen,48.45349,9.09582
Goldenstedt,52.78833,8.43201
Goldbach,49.99951,9.1844
Gohlis,51.366,12.367
Gochsheim,50.01667,10.28333
Goch,51.67873,6.15895
Gnarrenburg,53.38333,9
Gmund am Tegernsee,47.75119,11.7381
Glückstadt,53.78819,9.42408
Glücksburg,54.83503,9.55218
Glinde,53.5441,10.20048
Glienicke,52.63353,13.32564
Glauchau,50.81987,12.54493
Glashütten,50.21667,8.4
Glandorf,52.08474,7.99944
Gladenbach,50.76847,8.58085
Gladbeck,51.57077,6.98593
Ginsheim-Gustavsburg,49.9711,8.34532
Gilching,48.10755,11.2936
Gifhorn,52.47774,10.5511
Gießen,50.58727,8.67554
Giengen an der Brenz,48.62219,10.24312
Gevelsberg,51.31971,7.3392
Gettorf,54.40697,9.97803
Gesundbrunnen,52.55035,13.39139
Geseke,51.64091,8.5109
Gescher,51.954,7.00481
Gersthofen,48.42432,10.87273
Gerstetten,48.62254,10.01984
Gersheim,49.15,7.2
Gersfeld,50.45138,9.91422
Gerolzhofen,49.90025,10.34832
Gerolstein,50.22224,6.65984
Gernsheim,49.75305,8.48859
Gernsbach,48.77034,8.34306
Germersheim,49.2144,8.36687
Germering,48.13392,11.3765
Gerlingen,48.79954,9.06316
Geringswalde,51.07677,12.90725
Geretsried,47.85775,11.48054
Gerbrunn,49.77528,9.99361
Gera,50.88029,12.08187
Georgsmarienhütte,52.20296,8.0448
Georgensgmünd,49.18972,11.01667
Genthin,52.40668,12.1592
Gengenbach,48.40476,8.01433
Gemünden am Main,50.04946,9.70593
Geltendorf,48.11737,11.03216
Gelsenkirchen,51.50508,7.09654
Gelnhausen,50.20164,9.18742
Geldern,51.51908,6.32363
Geithain,51.05528,12.69674
Geislingen an der Steige,48.62423,9.82736
Geislingen,48.28768,8.81241
Geisingen,47.92504,8.65002
Geisenheim,49.9847,7.96835
Geisenhausen,48.47609,12.25817
Geisenfeld,48.68426,11.61233
Geiselhöring,48.82505,12.39649
Geilenkirchen,50.96745,6.11763
Gehrden,52.31362,9.60033
Geesthacht,53.43575,10.3779
Geeste,52.6,7.26667
Gedern,50.42482,9.1984
Gauting,48.06919,11.37703
Gau-Algesheim,49.95669,8.01569
Gärtringen,48.64176,8.90073
Garrel,52.95,8.01667
Garmisch-Partenkirchen,47.49209,11.09576
Gardelegen,52.5252,11.39523
Garching,48.24896,11.65101
Garching an der Alz,48.13451,12.58152
Garbsen,52.41371,9.5899
Gangkofen,48.43701,12.56419
Gangelt,50.99247,5.99802
Ganderkesee,53.03333,8.53333
Gammertingen,48.2524,9.22349
Gaimersheim,48.80705,11.36801
Gaildorf,49.00027,9.76953
Gaggenau,48.8,8.33333
Gadeland,54.05562,10.02547
Gadebusch,53.70137,11.11676
Bad Füssing,48.351,13.312
Füssen,47.57143,10.70171
Furtwangen,48.05156,8.20715
Furth im Wald,49.30955,12.84156
Fürth,49.65083,8.78472
Fürth,49.47593,10.98856
Fürstenzell,48.52163,13.31749
Fürstenwalde,52.36067,14.06185
Fürstenfeldbruck,48.17904,11.2547
Fürstenberg,53.18525,13.14554
Fürstenau,52.51667,7.6767
Fuldatal,51.38333,9.56667
Fulda,50.55162,9.67518
Fuhlsbüttel,53.63459,10.01608
Fröndenberg,51.47563,7.76946
Frohnau,52.63336,13.29024
Frohburg,51.05719,12.55746
Fritzlar,51.13181,9.27557
Friesoythe,53.0226,7.85764
Friesdorf,50.69608,7.12874
Frielendorf,50.97073,9.32269
Friedrichsthal,49.32786,7.09622
Friedrichstadt,51.88751,12.66947
Friedrichstadt,51.06047,13.70787
Friedrichshain,52.51559,13.45482
Friedrichshagen,52.45052,13.62463
Friedrichshafen,47.65689,9.47554
Friedrichsfelde,52.50575,13.50812
Friedrichsdorf,50.24962,8.64281
Friedrichroda,50.85754,10.56507
Friedland,53.67028,13.554
Gemeinde Friedland,51.41667,9.93333
Friedenau,52.47133,13.32813
Friedeburg,53.45,7.83333
Friedberg,50.33739,8.75591
Friedberg,48.35693,10.98461
Frickenhausen,48.59353,9.36005
Freyung,48.80952,13.54768
Freystadt,49.20007,11.33032
Freudenstadt,48.46695,8.41371
Freudenberg,50.89741,7.87415
Freren,52.487,7.54313
Freital,51.00166,13.6488
Freising,48.40351,11.74876
Freisen,49.55,7.25
Freilassing,47.84085,12.98114
Freiburg,47.9959,7.85222
Freiberg am Neckar,48.93196,9.2024
Freiberg,50.91089,13.33881
Frechen,50.91485,6.8118
Fraureuth,50.7,12.35
Frankfurt am Main,50.11552,8.68417
Frankfurt (Oder),52.34714,14.55062
Frankenthal,49.53414,8.35357
Frankenberg,51.0589,8.80077
Frankenberg,50.91297,13.04011
Forst,51.73544,14.63971
Forst,49.15861,8.58083
Forchtenberg,49.28867,9.56026
Forchheim,49.71754,11.05877
Forbach,48.68333,8.35
Fockbek,54.30501,9.59884
Flörsheim,50.01311,8.42779
Flöha,50.85613,13.07407
Flintbek,54.25,10.06667
Flieden,50.42389,9.5666
Flensburg,54.78805,9.43722
Flein,49.10306,9.21083
Fischeln,51.30353,6.58836
Fischbachau,47.71952,11.95081
Finsterwalde,51.63388,13.70662
Stuttgart Feuerbach,48.80867,9.15719
Feuchtwangen,49.16287,10.3385
Feucht,49.37597,11.21433
Felsberg,51.13763,9.42139
Fellbach,48.80912,9.27697
Feldkirchen-Westerham,47.90748,11.84266
Feldkirchen,48.14811,11.731
Fehrbellin,52.8135,12.7644
Faßberg,52.9,10.16667
Bad Fallingbostel,52.86641,9.69558
Falkenstein,50.47788,12.37129
Falkensee,52.56014,13.0927
Falkenberg,51.58557,13.24347
Eving,51.55177,7.48087
Everswinkel,51.92595,7.8469
Eutingen an der Enz,48.91246,8.74898
Eutin,54.13503,10.61148
Euskirchen,50.66057,6.78722
Ettlingen,48.94094,8.40763
Ettenheim,48.25696,7.81247
Esterwegen,52.99288,7.63327
Esslingen,48.73961,9.30473
Essingen,48.80859,10.02773
Essenbach,48.61332,12.21833
Essen,52.72258,7.9371
Essen,51.45657,7.01228
Espelkamp,52.38251,8.62127
Eslohe,51.25369,8.16949
Esens,53.64866,7.61267
Eschweiler,50.81854,6.27184
Eschwege,51.18386,10.05329
Eschborn,50.14328,8.57111
Erzhausen,49.95528,8.6475
Erwitte,51.6127,8.3384
Ertingen,48.1,9.46667
Erndtebrück,50.98927,8.25288
Erlensee,50.16304,8.97823
Erlenbach am Main,49.80341,9.16311
Erlangen,49.59099,11.00783
Erkrath,51.22235,6.90831
Erkner,52.42,13.75437
Erkelenz,51.07947,6.31531
Ergoldsbach,48.69263,12.20442
Ergolding,48.57654,12.17102
Erfurt,50.9787,11.03283
Erftstadt,50.81481,6.79387
Erdweg,48.3318,11.30339
Erding,48.30603,11.90686
Erbendorf,49.83983,12.04593
Erbach,49.66148,8.99402
Erbach,48.32841,9.88752
Eppstein,50.14277,8.39231
Eppingen,49.13645,8.91229
Eppertshausen,49.95056,8.85389
Eppendorf,53.5924,9.98752
Eppelheim,49.4019,8.63644
Eppelborn,49.4,6.96667
Ensdorf,49.3,6.78333
Ennigerloh,51.83843,8.03093
Ennepetal,51.29848,7.3629
Enkenbach-Alsenborn,49.48333,7.9
Eningen unter Achalm,48.48686,9.25946
Enger,52.14063,8.55772
Engen,47.85534,8.77342
Engelskirchen,50.98854,7.41391
Bad Endorf,47.90901,12.29795
Endingen,48.14221,7.70049
Endenich,50.72377,7.07278
Bad Endbach,50.75,8.5
Emstek,52.83333,8.15
Emskirchen,49.55282,10.71278
Emsdetten,52.1734,7.52781
Emsbüren,52.4,7.3
Emmering,48.18333,11.28333
Emmerich,51.83933,6.24792
Emmendingen,48.12096,7.85359
Emlichheim,52.61667,6.85
Emden,53.36745,7.20778
Elze,52.12263,9.73595
Elzach,48.17247,8.06992
Elz,50.41667,8.03333
Eltville,50.02858,8.11754
Eltmann,49.97148,10.66712
Elsterwerda,51.46043,13.52001
Elsterberg,50.60841,12.16787
Elsfleth,53.23748,8.45664
Elsenfeld,49.84289,9.16355
Elsdorf,50.93739,6.56828
Elmshorn,53.75396,9.65339
Elmschenhagen,54.28949,10.1899
Ellwangen,48.96164,10.13173
Ellrich,51.58656,10.66326
Ellerau,53.75,9.91667
Eitorf,50.76667,7.45
Eiterfeld,50.76667,9.8
Eißendorf,53.45216,9.95131
Eislingen,48.69515,9.70676
Eisfeld,50.42648,10.90695
Eisenhüttenstadt,52.15,14.65
Eisenberg,50.9686,11.90207
Eisenberg,49.55859,8.07199
Eisenach,50.9807,10.31522
Einhausen,49.67667,8.54833
Einfeld,54.12112,9.98902
Einbeck,51.82018,9.86961
Eilenburg,51.45984,12.63338
Eilbek,53.56985,10.05776
Eil,50.89362,7.07967
Eichwalde,52.36667,13.61667
Eichstätt,48.88854,11.19675
Eichenzell,50.49536,9.69672
Eichendorf,48.63266,12.85586
Eichenau,48.16667,11.31667
Eibenstock,50.49431,12.59978
Eibau,50.98272,14.66214
Ehringshausen,50.6,8.38333
Ehrenfriedersdorf,50.64934,12.97009
Ehrang,49.81606,6.69823
Ehningen,48.65882,8.94124
Ehingen,48.28259,9.72749
Egling,47.92316,11.50517
Eggolsheim,49.76961,11.05701
Eggesin,53.67973,14.07992
Eggenstein-Leopoldshafen,49.09006,8.39879
Eggenfelden,48.40509,12.75752
Egestorf,52.28568,9.51676
Egelsbach,49.96792,8.66341
Efringen-Kirchen,47.65,7.56667
Edingen-Neckarhausen,49.45722,8.60639
Edewecht,53.12699,7.98406
Edenkoben,49.28393,8.12714
Eckersdorf,50.02874,11.39611
Eckernförde,54.46854,9.83824
Echzell,50.38888,8.88605
Eching,48.3,11.61667
Ebstorf,53.02785,10.41839
Eberswalde,52.83492,13.81951
Ebersdorf,50.32898,11.15266
Ebersberg,48.0771,11.97063
Ebersbach an der Fils,48.716,9.5236
Ebersbach,51.00762,14.58621
Ebermannstadt,49.78154,11.18168
Eberdingen,48.87942,8.96502
Eberbach,49.4668,8.99016
Ebensfeld,50.0664,10.95835
Duvenstedt,53.70806,10.10444
Dußlingen,48.45357,9.05552
Düsseldorf,51.22172,6.77616
Durmersheim,48.93333,8.26667
Düren,50.80434,6.49299
Durach,47.6944,10.34449
Dunningen,48.21242,8.50619
Dülmen,51.83149,7.28075
Duisburg,51.43247,6.76516
Duderstadt,51.51312,10.25951
Dudenhofen,49.31861,8.38861
Drolshagen,51.02358,7.77355
Drochtersen,53.71015,9.38463
Driedorf,50.63333,8.18333
Dresden,51.05089,13.73832
Drensteinfurt,51.79535,7.73815
Dreieich,50.01997,8.69611
Drebkau,51.65412,14.22316
Dotzheim,50.07438,8.19503
Dötlingen,52.93333,8.38333
Dossenheim,49.45028,8.67472
Dörverden,52.85,9.23333
Dortmund,51.51494,7.466
Dorsten,51.66166,6.96514
Dornstetten,48.47198,8.49817
Dornstadt,48.46697,9.94434
Dornhan,48.35008,8.50901
Dormagen,51.09683,6.83167
Dorfen,48.27037,12.16056
Dörentrup,52.04109,9.00278
Donzdorf,48.68544,9.81053
Donauwörth,48.71804,10.7793
Donaueschingen,47.95514,8.49707
Dohna,50.95621,13.85839
Doberlug-Kirchhain,51.62578,13.56232
Döbeln,51.1221,13.11027
Ditzingen,48.82672,9.06703
Dittelbrunn,50.07212,10.21974
Dissen,52.11591,8.19956
Dippoldiswalde,50.89621,13.66905
Dinslaken,51.56227,6.7434
Dinklage,52.66223,8.1244
Dinkelscherben,48.34826,10.58893
Dinkelsbühl,49.06942,10.31985
Dingolfing,48.64244,12.49283
Dillingen an der Donau,48.58153,10.49527
Dillingen,49.35557,6.72781
Dillenburg,50.74114,8.28699
Diez,50.37419,8.00735
Dietzenbach,50.00976,8.77783
Dietramszell,47.84871,11.5953
Dietmannsried,47.80787,10.28948
Dietfurt,49.03578,11.58624
Dietenhofen,49.39997,10.68975
Dietenheim,48.21072,10.07163
Dießen am Ammersee,47.95085,11.10306
Dierdorf,50.54647,7.65271
Diepholz,52.60783,8.37005
Dielheim,49.28417,8.73806
Diekholzen,52.09617,9.91945
Diedorf,48.3532,10.78206
Dieburg,49.89738,8.84613
Deutz,50.93463,6.97495
Dettingen unter Teck,48.61667,9.45
Dettingen an der Erms,48.53077,9.34458
Dettenhausen,48.60758,9.10041
Dettelbach,49.80295,10.16519
Detmold,51.93855,8.87318
Detmerode,52.39016,10.7448
Dessau,51.83864,12.24555
Denzlingen,48.06667,7.88333
Denkendorf,48.69555,9.31675
Demmin,53.90762,13.03142
Delmenhorst,53.0511,8.63091
Delligsen,51.9412,9.80272
Delitzsch,51.52546,12.34284
Delbrück,51.76503,8.56223
Deizisau,48.7122,9.3861
Deißlingen,48.1123,8.60736
Deggingen,48.5971,9.71891
Deggendorf,48.84085,12.96068
Daun,50.19716,6.82942
Datteln,51.65598,7.3453
Dassel,51.80179,9.68904
Dasing,48.38482,11.04667
Darmstadt,49.87167,8.65027
Dannenberg,53.0967,11.09001
Damme,52.52157,8.19793
Dahme,51.87008,13.42743
Dahlen,51.36495,12.99881
Dahlem,52.4581,13.28702
Dachau,48.26,11.43402
Cuxhaven,53.86828,8.69902
Cunewalde,51.1,14.51667
Crimmitschau,50.81644,12.39045
Cremlingen,52.24794,10.65506
Crailsheim,49.13444,10.07193
Cottbus,51.75769,14.32888
Coswig,51.88618,12.45009
Coswig,51.13204,13.58312
Coppenbrügge,52.11852,9.5487
Contwig,49.25,7.43333
Colditz,51.12821,12.80295
Cölbe,50.85098,8.78092
Coesfeld,51.94349,7.16809
Cochem,50.14511,7.16379
Coburg,50.25937,10.96384
Cloppenburg,52.84754,8.045
Clausthal-Zellerfeld,51.80949,10.33821
Chemnitz,50.8357,12.92922
Charlottenburg,52.51667,13.28333
Cham,49.22565,12.65501
Celle,52.62264,10.08047
Castrop-Rauxel,51.55657,7.31155
Cappeln,52.81085,8.11474
Bad Camberg,50.29695,8.26896
Calw,48.71419,8.74031
Callenberg,50.85,12.63333
Calden,51.40943,9.40189
Calbe,51.90668,11.77478
Kalawa,51.74402,13.95329
Cadolzburg,49.4573,10.85329
Buxtehude,53.46716,9.68636
Bützow,53.84832,11.98256
Butzbach,50.43395,8.67122
Buttenwiesen,48.6,10.71667
Büttelborn,49.90333,8.52333
Bürstadt,49.64266,8.45936
Burscheid,51.08468,7.11393
Burladingen,48.29111,9.11286
Burkhardtsdorf,50.73333,12.91667
Burkardroth,50.27125,9.99162
Burgthann,49.35202,11.31154
Burgstädt,50.91333,12.806
Burglengenfeld,49.20379,12.04452
Burgkunstadt,50.14093,11.25205
Burgkirchen an der Alz,48.16753,12.7325
Burghausen,48.16925,12.83139
Burghaun,50.69684,9.72453
Burgebrach,49.82832,10.74338
Burgdorf,52.44628,10.0064
Burgau,48.43159,10.40989
Burg auf Fehmarn,54.43333,11.2
Burg bei Magdeburg,52.27152,11.85493
Büren,51.55109,8.55956
Burbach,50.75105,8.07939
Bunde,53.18333,7.26667
Bünde,52.19837,8.58644
Bühlertal,48.68569,8.18876
Bühl,48.69676,8.13523
Büdingen,50.29013,9.1114
Budenheim,50.01667,8.16667
Büdelsdorf,54.31824,9.67301
Buckow,52.42162,13.43613
Bückeburg,52.26065,9.04939
Buchloe,48.03719,10.72548
Buchholz in der Nordheide,53.32641,9.86812
Französisch Buchholz,52.60242,13.43019
Buchheim,50.95152,7.02093
Büchenbach,49.26778,11.05889
Büchen,53.48008,10.6176
Buchen in Odenwald,49.52416,9.32293
Buch,52.6347,13.49679
Brunsbüttel,53.8962,9.10459
Brühl,50.82928,6.90499
Brühl,49.39722,8.53361
Brüggen,51.24053,6.18376
Bruckmühl,47.87859,11.91098
Bruckberg,48.52244,11.99448
Bruchsal,49.12426,8.59804
Bruchköbel,50.17853,8.92315
Bruchhausen-Vilsen,52.82931,8.99066
Broitzem,52.23463,10.47718
Britz,52.44293,13.43388
Brilon,51.39462,8.57146
Brieselang,52.58333,13
Bretzfeld,49.17944,9.43833
Bretten,49.03685,8.70745
Brensbach,49.77389,8.88444
Bremervörde,53.48458,9.14306
Bremerhaven,53.55357,8.57553
Bremen,53.07582,8.80717
Breitungen,50.76355,10.32724
Breitenfeld,51.40354,12.34177
Breitenbrunn,50.47553,12.76649
Breisach am Rhein,48.03279,7.58294
Breidenbach,50.88734,8.45748
Bredstedt,54.61868,8.96441
Breckerfeld,51.25926,7.46807
Braunschweig,52.26594,10.52673
Braunsbedra,51.28602,11.88987
Bräunlingen,47.92957,8.44806
Braunlage,51.72651,10.6109
Braunfels,50.51545,8.38918
Brannenburg,47.73996,12.09166
Brandis,51.33597,12.61024
Brand-Erbisdorf,50.86643,13.32285
Brandenburg an der Havel,52.41667,12.55
Bramsche,52.40881,7.97288
Brakel,51.7175,9.18596
Brake (Unterweser),53.33333,8.48333
Brackenheim,49.07787,9.06601
Boxberg,49.47965,9.64006
Bovenden,51.58836,9.9222
Bous,49.27732,6.80131
Bötzingen,48.07642,7.72485
Bottrop,51.52392,6.9285
Bösel,53,7.95
Borsdorf,51.35,12.53333
Bornheim,50.76313,6.99089
Borna,51.12416,12.49639
Borkum,53.58094,6.69153
Borken,51.84382,6.85774
Borken,51.04501,9.2844
Borgholzhausen,52.10343,8.30211
Borgfelde,53.55475,10.03447
Borgentreich,51.56917,9.24113
Bordesholm,54.17611,10.03146
Boppard,50.23085,7.58992
Bopfingen,48.85847,10.35417
Bönnigheim,49.04018,9.09386
Bonndorf,47.81863,8.34139
Bonn,50.73438,7.09549
Bönen,51.6,7.76667
Bondorf,48.52064,8.83704
Bomlitz,52.9,9.65
Boll,48.64357,9.61295
Boizenburg,53.38153,10.72375
Bohnsdorf,52.39434,13.57339
Bohmte,52.36667,8.31667
Böhmenkirch,48.68333,9.93333
Böhlen,51.20061,12.38622
Bogenhausen,48.15221,11.61585
Bogen,48.91122,12.68955
Bodenwerder,51.97156,9.51931
Bodenkirchen,48.38333,12.38333
Bodenheim,49.93528,8.32
Bodelshausen,48.38886,8.97703
Bockum,51.34696,6.61589
Bockhorn,53.4,8.01667
Bockenem,52.00993,10.13197
Bochum,51.48165,7.21648
Bocholt,51.83879,6.61531
Böblingen,48.68212,9.01171
Bobingen,48.27091,10.8339
Bobenheim-Roxheim,49.5875,8.35778
Blumberg,47.84058,8.53329
Blomberg,51.94331,9.09067
Blieskastel,49.23724,7.25617
Bleicherode,51.44026,10.57202
Bleckede,53.28972,10.73372
Blaufelden,49.29778,9.97389
Blaubeuren,48.41215,9.78427
Blasewitz,51.05305,13.79831
Blankenheim,50.43333,6.65
Blankenhain,50.85993,11.3439
Blankenese,53.55698,9.8059
Blankenburg,52.59293,13.45516
Blankenburg,51.79025,10.95509
Blaichach,47.54208,10.25846
Bitterfeld-Wolfen,51.62355,12.32395
Bitburg,49.96794,6.52734
Bissendorf,52.23333,8.16667
Bispingen,53.08312,9.99772
Bisingen,48.31012,8.91738
Bischofswiesen,47.63115,12.98305
Bischofswerda,51.12771,14.17974
Bischofsheim in der Rhön,50.40239,10.00751
Bischofsheim,49.99389,8.36722
Bischberg,49.91087,10.83212
Birstein,50.35,9.3
Bad Birnbach,48.44489,13.09103
Birkenwerder,52.69106,13.27833
Birkenfeld,49.65245,7.16668
Birkenfeld,48.86667,8.63333
Birkenau,49.5625,8.70694
Bingen am Rhein,49.96675,7.8992
Bindlach,49.98167,11.61389
Billstedt,53.55,10.13333
Billigheim,49.34861,9.25389
Billerbeck,51.97829,7.29261
Bietigheim-Bissingen,48.94407,9.11755
Bietigheim,48.90919,8.25202
Biesenthal,52.76616,13.64416
Biesdorf,52.50906,13.5534
Bierstadt,50.08295,8.28569
Bienenbüttel,53.14157,10.48679
Bielefeld,52.03333,8.53333
Biedenkopf,50.91125,8.53016
Biebrich,50.0415,8.24878
Biebesheim,49.78088,8.46696
Bickenbach,49.75917,8.6175
Biblis,49.69167,8.45861
Biberach an der Riß,48.09345,9.79053
Bexbach,49.34615,7.25527
Beverungen,51.66801,9.37417
Bad Bevensen,53.07923,10.58129
Betzdorf,50.79094,7.87189
Bestwig,51.36081,8.40082
Bestensee,52.23978,13.63732
Besigheim,48.99797,9.14268
Bersenbrück,52.5516,7.94836
Bernsdorf,51.3735,14.06886
Bernkastel-Kues,49.91602,7.07664
Bernhardswald,49.09123,12.24744
Bernburg,51.79464,11.7401
Bernau am Chiemsee,47.81167,12.37566
Bernau bei Berlin,52.67982,13.58708
Berlin,52.52437,13.41053
Bergstedt,53.67111,10.12694
Bergneustadt,51.02496,7.65599
Bergkirchen,48.25671,11.36488
Bergkamen,51.61633,7.64451
Bergisch Gladbach,50.9856,7.13298
Bergheim,50.95572,6.63986
Bergen auf Rügen,54.41823,13.43349
Bergen,52.80837,9.96374
Berg,49.81417,12.14161
Berchtesgaden,47.63236,13.00187
Berching,49.10695,11.44138
Beratzhausen,49.09517,11.8097
Bensheim,49.68369,8.61839
Benningen am Neckar,48.94672,9.24212
Bennewitz,51.36074,12.71376
Bendorf,50.42289,7.57924
Bad Belzig,52.14184,12.59272
Belm,52.3,8.13333
Bellheim,49.19833,8.27944
Belgern,51.48263,13.12382
Beilstein,49.0414,9.3137
Beeskow,52.17291,14.24597
Beerfelden,49.56858,8.97444
Beelitz,52.23812,12.9714
Beelen,51.92906,8.11117
Bedburg,50.99258,6.57128
Beckum,51.75571,8.04075
Beckingen,49.4,6.7
Bebra,50.97445,9.79562
Bayreuth,49.94782,11.57893
Bayenthal,50.91218,6.96799
Bautzen,51.18035,14.43494
Baunatal,51.25182,9.40747
Baumschulenweg,52.46583,13.48523
Battenberg,51.01391,8.64603
Bassum,52.85059,8.72791
Barth,54.36346,12.72491
Barßel,53.16981,7.75012
Barsinghausen,52.3,9.45
Barsbüttel,53.56667,10.16667
Barntrup,51.99038,9.11642
Barnstorf,52.71009,8.50256
Barmstedt,53.79175,9.77021
Barleben,52.20193,11.6177
Bargteheide,53.72856,10.26695
Bardowick,53.29354,10.38811
Bannewitz,50.99291,13.71712
Bammental,49.35611,8.77944
Bamberg,49.89873,10.90067
Balve,51.3315,7.86424
Baltmannsweiler,48.74215,9.4494
Ballenstedt,51.719,11.23265
Balingen,48.27525,8.85464
Bakum,52.74118,8.19546
Baiersdorf,49.65807,11.03594
Baiersbronn,48.50318,8.37699
Baienfurt,47.82857,9.65157
Baesweiler,50.90964,6.18874
Bad Zwischenahn,53.18333,8
Bad Wurzach,47.90799,9.89686
Bad Wörishofen,48.00674,10.59666
Bad Windsheim,49.50274,10.41539
Bad Wimpfen,49.22971,9.15648
Bad Wildungen,51.11963,9.12475
Bad Waldsee,47.92027,9.7549
Bad Vilbel,50.17866,8.73756
Bad Tölz,47.76111,11.5589
Bad Sooden-Allendorf,51.27092,9.97483
Bad Soden-Salmünster,50.27574,9.36705
Bad Soden am Taunus,50.1408,8.50449
Bad Segeberg,53.93775,10.30745
Bad Schwartau,53.91887,10.69691
Bad Schwalbach,50.14196,8.06964
Bad Sassendorf,51.58333,8.16667
Bad Salzungen,50.81342,10.2361
Bad Salzuflen,52.0862,8.74434
Bad Salzdetfurth,52.05777,10.0058
Bad Säckingen,47.55371,7.94612
Bad Sachsa,51.59499,10.55546
Bad Rothenfelde,52.11667,8.16667
Bad Reichenhall,47.72947,12.87819
Bad Rappenau,49.23848,9.1018
Bad Pyrmont,51.98589,9.25246
Bad Orb,50.22788,9.34782
Bad Oldesloe,53.81167,10.37417
Bad Oeynhausen,52.20699,8.80365
Bad Neustadt an der Saale,50.32174,10.20673
Bad Neuenahr-Ahrweiler,50.54322,7.1113
Bad Nenndorf,52.33703,9.37904
Bad Nauheim,50.36463,8.73859
Bad Münstereifel,50.55667,6.76424
Bad Münder am Deister,52.19551,9.46421
Bad Mergentheim,49.4925,9.77361
Bad Marienberg,50.64947,7.94958
Bad Lippspringe,51.78333,8.81683
Bad Liebenzell,48.77427,8.72971
Bad Liebenwerda,51.51826,13.39459
Bad Lauterberg im Harz,51.63272,10.47031
Bad Lausick,51.14495,12.64449
Bad Lauchstädt,51.38652,11.86956
Bad Langensalza,51.10771,10.646
Bad Kreuznach,49.8414,7.86713
Bad Kösen,51.13431,11.72203
Bad König,49.7432,9.0075
Bad Kissingen,50.20228,10.07784
Bad Iburg,52.1549,8.04216
Bad Hönningen,50.51689,7.31195
Bad Honnef,50.64336,7.2278
Bad Homburg vor der Höhe,50.22683,8.61816
Bad Hersfeld,50.87197,9.70891
Bad Herrenalb,48.79787,8.43617
Bad Harzburg,51.88268,10.56157
Bad Gandersheim,51.87167,10.02537
Bad Freienwalde,52.7873,14.0304
Bad Frankenhausen,51.35609,11.09977
Bad Feilnbach,47.77331,12.00973
Bad Essen,52.31667,8.33333
Baden-Baden,48.7606,8.23975
Bad Ems,50.33544,7.71369
Bad Dürrheim,48.02093,8.53056
Bad Dürrenberg,51.29545,12.06583
Bad Dürkheim,49.4618,8.17236
Bad Düben,51.59174,12.58492
Bad Driburg,51.73297,9.01969
Bad Doberan,54.10712,11.90051
Bad Brückenau,50.30853,9.78985
Bad Breisig,50.50523,7.28861
Bad Bramstedt,53.91827,9.88243
Bad Blankenburg,50.68189,11.27369
Bad Berleburg,51.05224,8.39227
Bad Berka,50.89982,11.28245
Bad Bergzabern,49.10245,8.00092
Bad Bentheim,52.30066,7.15763
Bad Aibling,47.8638,12.01055
Bad Abbach,48.93754,12.04494
Backnang,48.94743,9.43718
Babenhausen,49.96519,8.95129
Babenhausen,48.14497,10.25325
Aurich,53.46919,7.48232
Aulendorf,47.95083,9.63745
Au in der Hallertau,48.55838,11.74138
Augustusburg,50.81192,13.10197
Augustdorf,51.90944,8.73173
Augsburg,48.37154,10.89851
Auerbach,50.51155,12.40083
Auerbach,49.69201,11.63327
Aue,50.59034,12.70657
Attendorn,51.12645,7.90333
Aßlar,50.59163,8.46273
Asperg,48.90525,9.13502
Aschheim,48.17112,11.71675
Aschersleben,51.75742,11.46084
Ascheberg,51.78333,7.61667
Aschaffenburg,49.97704,9.15214
Asbach,50.66667,7.41667
Arzberg,50.05774,12.18676
Artern,51.36431,11.29167
Bad Arolsen,51.37982,9.01445
Arnstorf,48.5584,12.81674
Arnstein,49.97767,9.96983
Arnstadt,50.84048,10.95198
Arnsberg,51.38333,8.08333
Appen,53.65813,9.74582
Apolda,51.02624,11.51638
Aplerbeck,51.48333,7.55
Apen,53.21667,7.8
Ansbach,49.30481,10.5931
Anröchte,51.56667,8.33333
Annweiler am Trifels,49.20613,7.97527
Annaberg-Buchholz,50.57953,13.00627
Ankum,52.55,7.88333
Anklam,53.85637,13.68965
Angermünde,53.01499,13.99924
Andernach,50.43109,7.40425
Ampfing,48.254,12.41515
Amöneburg,50.79595,8.9233
Amberg,49.44287,11.86267
Alzey,49.74657,8.11513
Alzenau in Unterfranken,50.0888,9.06455
Altusried,47.8041,10.21429
Altrip,49.43556,8.49472
Altötting,48.22533,12.67665
Altomünster,48.38767,11.25691
Altlußheim,49.30167,8.49917
Altlandsberg,52.56503,13.72815
Althengstett,48.72325,8.79434
Altglienicke,52.41116,13.5355
Altentreptow,53.69416,13.26504
Altensteig,48.58649,8.60395
Altenstadt,50.28747,8.94373
Altenkunstadt,50.12504,11.2503
Altenkirchen,50.68594,7.64176
Altenholz,54.39793,10.1279
Altenburg,50.98763,12.43684
Altenberge,52.05,7.46667
Altenberg,50.76556,13.75334
Altenbeken,51.76455,8.94201
Altena,51.29472,7.67337
Altdorf bei Nürnberg,49.3856,11.3573
Altdorf,48.15374,12.18419
Altbach,48.72268,9.38078
Alsterdorf,53.61083,10.01306
Alsfeld,50.75185,9.27082
Alsdorf,50.87673,6.16399
Alsbach,49.74083,8.62337
Alpirsbach,48.34507,8.40197
Alpen,51.58333,6.51667
Allmannsdorf,47.68034,9.20364
Allersberg,49.25132,11.23659
Allensbach,47.71536,9.07145
Allendorf,51.02995,8.67232
Algermissen,52.25332,9.96915
Alfter,50.73333,7.01667
Alfeld,51.98382,9.81989
Alfdorf,48.84385,9.71857
Aldingen,48.1,8.7
Aldenhoven,50.9,6.28333
Albstadt,48.21644,9.02596
Albbruck,47.59077,8.12954
Aken,51.85274,12.04461
Ainring,47.81311,12.94048
Aidlingen,48.67849,8.89524
Aichach,48.45755,11.13413
Ahrensburg,53.67515,10.22593
Ahrensbök,54.00862,10.57434
Ahlerstedt,53.4,9.45
Ahlen,51.76338,7.8887
Ahaus,52.07936,7.01344
Affing,48.46667,10.98333
Aerzen,52.04953,9.25856
Adorf,50.32011,12.25986
Adlershof,52.43548,13.54825
Adendorf,53.28189,10.43787
Adelsheim,49.4015,9.3925
Adelsdorf,49.47022,10.68522
Adelebsen,51.58272,9.75461
Achim,53.01416,9.0263
Achern,48.63115,8.07607
Abtsgmünd,48.89503,10.00172
Abensberg,48.81684,11.8498
Abenberg,49.24282,10.96401
Aalen,48.83777,10.0933
Höhenkirchen-Siegertsbrunn,48.01932,11.71906
Weiler-Simmerberg,47.58261,9.91352
Lauchringen,47.62699,8.31442
Uhldingen-Mühlhofen,47.73333,9.25
Ühlingen-Birkendorf,47.71667,8.31667
Neukirchen-Vluyn,51.44665,6.55194
Altes Lager,48.41755,9.53606
Aspach,48.96667,9.4
Königsbach-Stein,48.96585,8.60573
Niefern-Öschelbronn,48.91667,8.78333
Urbach,48.8168,9.5769
Giesen,52.19716,9.8989
Mallersdorf-Pfaffenberg,48.76637,12.23096
Postbauer-Heng,49.30528,11.35722
Katlenburg-Lindau,51.68333,10.1
Vellmar,51.35806,9.47974
Möhnesee,51.5,8.13333
Schieder-Schwalenberg,51.87713,9.19538
Rödental,50.29516,11.04122
Bruchmühlbach-Miesau,49.38333,7.43333
Schönenberg-Kübelberg,49.4074,7.37233
Mülheim-Kärlich,50.3851,7.4989
Florstadt,50.31667,8.86667
Liederbach,50.12221,8.49397
Schöffengrund,50.49345,8.47183
Waldbrunn,50.51875,8.10812
Waldems,50.25,8.33333
Walluf,50.04003,8.15545
Ilsede,52.2634,10.19922
Sassenburg,52.51667,10.63333
Sickte,52.21847,10.6424
Ebersbach,51.23333,13.65
Rheinau,48.66602,7.93659
Reichenau,47.68885,9.06355
Vogtsburg,48.09688,7.64185
Ransbach-Baumbach,50.46496,7.7283
Ludweiler-Warndt,49.22074,6.81195
Aachen,50.77664,6.08342
Ubstadt-Weiher,49.16296,8.63165
Dannstadt-Schauernheim,49.44028,8.30861
Sankt Leon-Rot,49.26593,8.61803
Karlsdorf-Neuthard,49.13472,8.53028
Graben-Neudorf,49.16695,8.49243
Mörfelden-Walldorf,49.99472,8.58361
Linkenheim-Hochstetten,49.13197,8.41244
Böhl-Iggelheim,49.38056,8.30389
Alsbach-Hähnlein,49.73861,8.59583
Riedstadt,49.83411,8.49621
Kranichstein,49.90474,8.68084
Leingarten,49.14639,9.11694
Lauda-Königshofen,49.56526,9.70816
Filderstadt,48.65698,9.22049
Ostfildern,48.72704,9.24954
Rodgau,50.02627,8.88588
Butjadingen,53.54722,8.335
Kaufungen,51.28111,9.61861
Jettingen-Scheppach,48.3896,10.4381
Gropiusstadt,52.42686,13.46053
Seeheim-Jugenheim,49.765,8.65194
Bonn Hardtberg,50.704,7.054
Charlottenburg-Nord,52.53048,13.29371
Mitte,52.52003,13.40489
Plänterwald,52.48106,13.47276
Dallgow-Döberitz,52.54269,13.05837
Rheinstetten,48.9685,8.30704
Münstertal/Schwarzwald,47.85472,7.78417
Salem,47.76258,9.29031
Altstadt Sud,50.93331,6.95954
Altstadt Nord,50.93893,6.95752
Neuehrenfeld,50.95753,6.93611
Bilderstöckchen,50.96983,6.92997
Neunkirchen am Brand,49.61204,11.12967
Rothenburgsort,53.535,10.04082
Stuttgart-Ost,48.78363,9.21032
Bochum-Hordel,51.50168,7.1756
St. Pauli,53.557,9.964
Schwanau,48.36669,7.76244
Gallus,50.10038,8.6295
Eidelstedt,53.60697,9.90538
Paulsstadt,53.63283,11.40372
Weststadt,53.63472,11.39565
Eisleben Lutherstadt,51.52754,11.54835
Halle-Neustadt,51.47924,11.91605
Bergedorf,53.48462,10.22904
Spandau,52.5511,13.19921
Treptow,52.49376,13.44469
Niederrad,50.08309,8.62852
Wittenberg,51.8661,12.64973
Rabenau,50.67753,8.86425
Äußere Neustadt,51.06859,13.75591
Garbsen-Mitte,52.42659,9.60383
Barmbek-Nord,53.6052,10.03988
Barmbek-Süd,53.58007,10.04067
Hammerbrook,53.54527,10.03042
HafenCity,53.54156,9.99328
Farmsen-Berne,53.60639,10.11972
Fehmarn,54.4378,11.19352
Hansaviertel,52.51853,13.34178
Falkenhagener Feld,52.55191,13.16802
Neu-Hohenschönhausen,52.56681,13.51255
Waidmannslust,52.60691,13.31968
Alt-Hohenschönhausen,52.54608,13.5013
Fennpfuhl,52.52921,13.47267
Neustadt an der Orla,50.7364,11.74619
Hamburg-Nord,53.58935,9.984
Neustadt/Nord,50.949,6.9479
Neustadt/Süd,50.92509,6.94762
Buchforst,50.95093,7.00579
Kalk,50.94013,7.00605
Rodenkirchen,50.89328,6.99481
Mülheim,50.96639,7.00384
Gartenstadt,49.45937,8.40377
Lachen-Speyerdorf,49.33049,8.19983
Osternienburger Land,51.8,12.01667
Auf der Horst,52.41943,9.60248
Dierkow-Neu,54.10571,12.16753
Kröpeliner-Tor-Vorstadt,54.08849,12.11539
Friedland,51.41917,9.91762
Solms,50.5362,8.40704
Westhagen,52.40425,10.73939
Düsseldorf-Pempelfort,51.23812,6.78678
Burglesum,53.16532,8.68873
Heidberg,52.22735,10.531
Sülldorf,53.5786,9.79985
Faldera,54.06128,9.94838
Gartenstadt,54.09265,9.96966
Böcklersiedlung-Bugenhagen,54.07438,9.95533
Hoheluft-West,53.58067,9.96704
Altona-Altstadt,53.55018,9.94653
Altona-Nord,53.56321,9.94257
Sternschanze,53.56248,9.96566
Dulsberg,53.58383,10.06445
Hoheluft-Ost,53.58399,9.97585
Grafenau,48.71427,8.91219
Hirschberg an der Bergstraße,49.5071,8.65693
Kraichtal,49.14623,8.73276
Lenningen,48.55048,9.47674
Vaihingen-Mitte,48.7324,9.1117
Heerstraße,48.73474,9.10017
Sachsenheim,48.96,9.06472
Altstadt,47.66056,9.17345
Paradies,47.66581,9.16386
Petershausen-West,47.67411,9.17787
Kronberg Tal,50.17929,8.5037
Siegfriedviertel,52.28854,10.53257
Am Hagenring,52.27256,10.54213
Petritor - Ost,52.26841,10.50717
Weinberg,52.25703,10.47446
Rothenburg,52.24351,10.47833
Wilhelmitor - Süd,52.25117,10.51133
Prinzenpark,52.26525,10.55013
Petritor - Nord,52.27712,10.50161
Wilhelmitor - Nord,52.2592,10.49848
Remseck am Neckar,48.87213,9.27334
Brachenfeld-Ruthenberg,54.07154,10.0092
Königsbau,47.67995,9.18539
Kelkheim-Mitte,50.13608,8.45107
Oberzent,49.56773,8.97371
Überruhr-Holthausen,51.41802,7.08487
Gesundbrunnen,51.18996,14.44251
Lemwerder,53.16281,8.61495
Edertal,51.16717,9.07794
